SCHOOL_ENROLLMENT_ID,CENSUS_YEAR,CENSUS_SUBDIVISION_ID,SCHOOL_NAME,SCHOOL_DISTRICT,ELEMENTARY_SCHOOL_ENROLLMENT,SECONDARY_SCHOOL_ENROLLMENT,SCHOOL_YEAR_PERIOD,DATA_PUBLICATION_YEAR,LATITUDE,LONGITUDE
239,2016,5903050,Arrow Lakes Distributed Learning,Arrow Lakes,20,18,2016/2017,2017,50.239167,-117.7975
240,2016,5903050,Burton Academy School,Arrow Lakes,0,11,2016/2017,2017,50.239167,-117.7975
241,2016,5903060,Edgewood Elementary,Arrow Lakes,19,0,2016/2017,2017,49.780833,-118.143056
242,2016,5903032,Lucerne Elem-Secondary,Arrow Lakes,53,25,2016/2017,2017,49.991389,-117.377222
243,2016,5903050,Nakusp Elementary,Arrow Lakes,164,0,2016/2017,2017,50.239167,-117.7975
244,2016,5903050,Nakusp Secondary,Arrow Lakes,0,147,2016/2017,2017,50.239167,-117.7975
245,2016,5939019,Arrow Heights Elementary,Revelstoke,134,0,2016/2017,2017,50.976789,-118.178185
246,2016,5939019,Begbie View Elementary,Revelstoke,259,0,2016/2017,2017,50.997342,-118.197379
247,2016,5939019,Columbia Park Elementary,Revelstoke,198,0,2016/2017,2017,51.015076,-118.219142
248,2016,5939019,Revelstoke Secondary,Revelstoke,0,383,2016/2017,2017,50.99152,-118.197553
249,2016,5903045,Continuing Ed SD 20,Kootenay-Columbia,0,4,2016/2017,2017,49.322379,-117.659537
250,2016,5905005,Fruitvale Elementary,Kootenay-Columbia,343,0,2016/2017,2017,49.111524,-117.544286
251,2016,5905014,Glenmerry Elementary,Kootenay-Columbia,376,0,2016/2017,2017,49.098802,-117.661316
252,2016,5905014,J Lloyd Crowe Secondary,Kootenay-Columbia,0,796,2016/2017,2017,49.10294,-117.699018
253,2016,5905018,James L Webster Elementary,Kootenay-Columbia,272,0,2016/2017,2017,49.095372,-117.745006
254,2016,5903045,Kinnaird Elementary,Kootenay-Columbia,329,0,2016/2017,2017,49.288651,-117.654428
255,2016,5905014,Kootenay-Columbia Learning Centre,Kootenay-Columbia,4,88,2016/2017,2017,49.097067,-117.694873
256,2016,5903058,Robson Community School,Kootenay-Columbia,169,0,2016/2017,2017,49.334445,-117.691389
257,2016,5905023,Rossland Summit School,Kootenay-Columbia,345,51,2016/2017,2017,49.080751,-117.799781
258,2016,5905014,St Michael's Elementary,Kootenay-Columbia,161,0,2016/2017,2017,49.101529,-117.701965
259,2016,5903045,Stanley Humphries Secondary,Kootenay-Columbia,0,556,2016/2017,2017,49.319958,-117.6597
260,2016,5903045,Twin Rivers Elementary,Kootenay-Columbia,428,0,2016/2017,2017,49.321396,-117.659565
261,2016,5937014,Alexis Park Elementary,Vernon,298,0,2016/2017,2017,50.27349,-119.279691
262,2016,5937014,Alternative Learning Program,Vernon,0,43,2016/2017,2017,50.251843,-119.251101
263,2016,5937021,B X Elementary,Vernon,401,0,2016/2017,2017,50.2903,-119.223321
264,2016,5937014,Beairsto Elementary,Vernon,605,0,2016/2017,2017,50.266041,-119.266706
265,2016,5937005,Charles Bloom Elementary Secondary,Vernon,61,289,2016/2017,2017,50.250833,-118.961944
266,2016,5937023,Cherryville Elementary,Vernon,71,0,2016/2017,2017,50.244292,-118.615152
267,2016,5937014,Clarence Fulton Secondary,Vernon,0,646,2016/2017,2017,50.247889,-119.308803
268,2016,5937010,Coldstream Elementary,Vernon,407,0,2016/2017,2017,50.22361,-119.233198
269,2016,5937014,Continuing Ed SD 22,Vernon,0,26,2016/2017,2017,50.26297,-119.269034
270,2016,5937005,Crossroads Alternate School,Vernon,0,10,2016/2017,2017,50.250833,-118.961944
271,2016,5937014,Ellison Elementary,Vernon,344,0,2016/2017,2017,50.266667,-119.271667
272,2016,5937014,Harwood Elementary,Vernon,417,0,2016/2017,2017,50.276049,-119.258532
273,2016,5937021,Hillview Elementary,Vernon,358,0,2016/2017,2017,50.254407,-119.236744
274,2016,5937005,J W Inglis Elementary,Vernon,320,0,2016/2017,2017,50.252619,-118.96687
275,2016,5937010,Kalamalka Secondary,Vernon,0,511,2016/2017,2017,50.224488,-119.248156
276,2016,5937010,Kidston Elementary,Vernon,277,0,2016/2017,2017,50.222504,-119.258166
277,2016,5937010,Lavington Elementary,Vernon,136,0,2016/2017,2017,50.231484,-119.107276
278,2016,5937014,Mission Hill Elementary,Vernon,308,0,2016/2017,2017,50.25408,-119.281764
279,2016,5937014,Okanagan Landing Elementary,Vernon,342,0,2016/2017,2017,50.237487,-119.344062
280,2016,5937014,Open Door Alternate School,Vernon,0,39,2016/2017,2017,50.26297,-119.269034
281,2016,5937014,Pleasant Valley Christian Academy,Vernon,13,0,2016/2017,2017,50.277564,-119.254485
282,2016,5937014,Silver Star Elementary,Vernon,471,0,2016/2017,2017,50.267462,-119.250504
283,2016,5937014,St James,Vernon,147,0,2016/2017,2017,50.262184,-119.266548
284,2016,5937017,Vernon Christian School,Vernon,200,142,2016/2017,2017,50.30928,-119.245517
285,2016,5937014,Vernon Secondary,Vernon,0,1016,2016/2017,2017,50.256934,-119.251107
286,2016,5937014,vLearn.ca,Vernon,80,404,2016/2017,2017,50.261688,-119.285737
287,2016,5937014,W L Seaton Secondary,Vernon,0,856,2016/2017,2017,50.272477,-119.267458
288,2016,5935010,A S Matheson Elementary,Central Okanagan,232,0,2016/2017,2017,49.876061,-119.478626
289,2016,5935010,Aberdeen Hall Preparatory School,Central Okanagan,292,0,2016/2017,2017,49.935009,-119.40238
290,2016,5935010,Aberdeen Hall Senior,Central Okanagan,36,228,2016/2017,2017,49.935009,-119.40238
291,2016,5935010,Adult Education SD#23,Central Okanagan,0,18,2016/2017,2017,49.881247,-119.487438
292,2016,5935010,Anne McClymont Elementary,Central Okanagan,542,0,2016/2017,2017,49.820232,-119.49005
293,2016,5935010,Bankhead Elementary,Central Okanagan,276,0,2016/2017,2017,49.891889,-119.472111
294,2016,5935010,Belgo Elementary School,Central Okanagan,326,0,2016/2017,2017,49.882257,-119.389856
295,2016,5935010,Black Mountain Elementary,Central Okanagan,408,0,2016/2017,2017,49.867177,-119.349252
296,2016,5935010,Casorso Elementary,Central Okanagan,532,0,2016/2017,2017,49.852912,-119.480572
297,2016,5935010,Central School Programs,Central Okanagan,1,260,2016/2017,2017,49.881247,-119.487438
298,2016,5935029,Chief Tomat Elementary,Central Okanagan,270,0,2016/2017,2017,49.841811,-119.58868
299,2016,5935010,Chute Lake Elementary,Central Okanagan,492,0,2016/2017,2017,49.795854,-119.5096
300,2016,5935029,Constable Neil Bruce Middle School,Central Okanagan,226,517,2016/2017,2017,49.857264,-119.597148
301,2016,5935016,Davidson Road Elementary,Central Okanagan,482,0,2016/2017,2017,50.051513,-119.430859
302,2016,5935010,Dorothea Walker Elementary,Central Okanagan,470,0,2016/2017,2017,49.826619,-119.484366
303,2016,5935010,Dr Knox Middle School,Central Okanagan,244,490,2016/2017,2017,49.922081,-119.435019
304,2016,5935012,Ellison Elementary,Central Okanagan,183,0,2016/2017,2017,49.938551,-119.355579
305,2016,5935016,George Elliot Secondary,Central Okanagan,125,735,2016/2017,2017,50.031271,-119.402078
306,2016,5935029,George Pringle Elementary,Central Okanagan,495,0,2016/2017,2017,49.82707,-119.632286
307,2016,5935010,Glenmore Elementary,Central Okanagan,649,0,2016/2017,2017,49.897629,-119.455964
308,2016,5935029,Glenrosa Elementary,Central Okanagan,239,0,2016/2017,2017,49.839868,-119.654049
309,2016,5935029,Glenrosa Middle School,Central Okanagan,173,314,2016/2017,2017,49.833092,-119.658564
310,2016,5935029,Helen Gorman Elementary,Central Okanagan,237,0,2016/2017,2017,49.845874,-119.672146
311,2016,5935010,Heritage Christian Online School (DL),Central Okanagan,1725,2494,2016/2017,2017,49.890622,-119.404594
312,2016,5935010,Heritage Christian School,Central Okanagan,193,161,2016/2017,2017,49.890622,-119.404594
313,2016,5935029,Hudson Road Elementary,Central Okanagan,306,0,2016/2017,2017,49.86248,-119.564441
314,2016,5935010,Immaculata Regional High School,Central Okanagan,0,255,2016/2017,2017,49.859243,-119.465614
315,2016,5935010,Kelowna Christian School,Central Okanagan,403,256,2016/2017,2017,49.863489,-119.457325
316,2016,5935010,Kelowna Secondary,Central Okanagan,0,1813,2016/2017,2017,49.864218,-119.478842
317,2016,5935010,Kelowna Waldorf School,Central Okanagan,128,0,2016/2017,2017,49.817053,-119.499162
318,2016,5935010,KLEOS Open Learning (DL),Central Okanagan,85,98,2016/2017,2017,49.885123,-119.498047
319,2016,5935010,KLO Middle School,Central Okanagan,273,604,2016/2017,2017,49.860069,-119.475979
320,2016,5935029,Mar Jok Elementary,Central Okanagan,461,0,2016/2017,2017,49.877006,-119.571781
321,2016,5935029,Mount Boucherie Senior Secondary,Central Okanagan,0,1263,2016/2017,2017,49.858998,-119.582712
322,2016,5935010,North Glenmore Elementary,Central Okanagan,500,0,2016/2017,2017,49.928553,-119.435958
323,2016,5935010,Okanagan Adventist Academy,Central Okanagan,41,30,2016/2017,2017,49.876919,-119.396136
324,2016,5935010,Okanagan Mission Secondary,Central Okanagan,208,1157,2016/2017,2017,49.818477,-119.485904
325,2016,5935010,Kelowna Montessori School,Central Okanagan,34,0,2016/2017,2017,49.866742,-119.405508
326,2016,5935029,Our Lady of Lourdes,Central Okanagan,137,0,2016/2017,2017,49.828149,-119.63287
327,2016,5935016,Oyama Traditional School,Central Okanagan,141,0,2016/2017,2017,50.106911,-119.367863
328,2016,5935018,Peachland Elementary,Central Okanagan,209,0,2016/2017,2017,49.785711,-119.718257
329,2016,5935010,Pearson Road Elementary,Central Okanagan,238,0,2016/2017,2017,49.899747,-119.399626
330,2016,5935016,Peter Greer Elementary,Central Okanagan,411,0,2016/2017,2017,50.031602,-119.388762
331,2016,5935010,Quigley Elementary,Central Okanagan,258,0,2016/2017,2017,49.880756,-119.400019
332,2016,5935010,Raymer Elementary,Central Okanagan,239,0,2016/2017,2017,49.864377,-119.488973
333,2016,5935029,Rose Valley Elementary,Central Okanagan,337,0,2016/2017,2017,49.887066,-119.556342
334,2016,5935010,Rutland Elementary,Central Okanagan,422,0,2016/2017,2017,49.898987,-119.375823
335,2016,5935010,Rutland Middle School,Central Okanagan,363,175,2016/2017,2017,49.897505,-119.384623
336,2016,5935010,Rutland Senior Secondary,Central Okanagan,0,1573,2016/2017,2017,49.897505,-119.384623
337,2016,5935010,SD 23 Distributed Learning,Central Okanagan,18,942,2016/2017,2017,49.881247,-119.487438
338,2016,5935802,Sensisyusten House of Learning,Central Okanagan,73,0,2016/2017,2017,49.840507,-119.594846
339,2016,5935029,Shannon Lake Elementary,Central Okanagan,421,0,2016/2017,2017,49.852471,-119.613343
340,2016,5935010,South Kelowna Elementary,Central Okanagan,232,0,2016/2017,2017,49.834174,-119.422629
341,2016,5935010,South Rutland Elementary,Central Okanagan,193,0,2016/2017,2017,49.887265,-119.382581
342,2016,5935010,Springvalley Elementary,Central Okanagan,256,0,2016/2017,2017,49.8846,-119.41924
343,2016,5935010,Springvalley Middle School,Central Okanagan,304,133,2016/2017,2017,49.8846,-119.41924
344,2016,5935010,St Joseph Elementary School,Central Okanagan,257,0,2016/2017,2017,49.879509,-119.484407
345,2016,5935010,Studio 9 Independent School of the Arts,Central Okanagan,72,26,2016/2017,2017,49.892636,-119.409835
346,2016,5935010,Watson Road Elementary,Central Okanagan,558,0,2016/2017,2017,49.912659,-119.449375
347,2016,5935010,Willowstone Academy,Central Okanagan,115,0,2016/2017,2017,49.836689,-119.486213
348,2016,5941005,100 Mile House Elementary,Cariboo-Chilcotin,352,0,2016/2017,2017,51.645969,-121.294789
349,2016,5941014,150 Mile Elementary,Cariboo-Chilcotin,185,0,2016/2017,2017,52.107291,-121.928321
350,2016,5941041,Alexis Creek Elementary/Secondary,Cariboo-Chilcotin,18,20,2016/2017,2017,52.083333,-123.283333
351,2016,5941840,Anahim Lake Elem-Jr Secondary,Cariboo-Chilcotin,33,13,2016/2017,2017,52.466667,-125.316667
352,2016,5955023,Big Lake Elementary,Cariboo-Chilcotin,22,0,2016/2017,2017,56.051661,-121.237541
353,2016,5941009,Cariboo Adventist Academy,Cariboo-Chilcotin,66,42,2016/2017,2017,52.112987,-122.111583
354,2016,5941009,Cataline Elementary,Cariboo-Chilcotin,330,0,2016/2017,2017,52.150178,-122.150971
355,2016,5941012,Chilcotin Road Elementary,Cariboo-Chilcotin,226,0,2016/2017,2017,52.115114,-122.173
356,2016,5941012,Dog Creek Elem-Jr. Secondary,Cariboo-Chilcotin,12,5,2016/2017,2017,52.102778,-122.125
357,2016,5941016,Forest Grove Elementary,Cariboo-Chilcotin,57,0,2016/2017,2017,51.766667,-121.1
358,2016,5941009,Graduation Routes Other Ways,Cariboo-Chilcotin,39,112,2016/2017,2017,52.133413,-122.145701
359,2016,5941009,GROW Continuing Education Centre,Cariboo-Chilcotin,0,23,2016/2017,2017,52.133413,-122.145701
360,2016,5941017,Horse Lake Elementary,Cariboo-Chilcotin,187,0,2016/2017,2017,51.573762,-121.138009
361,2016,5941014,Horsefly Elem-Jr Secondary,Cariboo-Chilcotin,53,11,2016/2017,2017,52.333333,-121.416667
362,2016,5941015,Lac La Hache Elementary,Cariboo-Chilcotin,12,0,2016/2017,2017,51.816667,-121.466667
363,2016,5941009,Lake City Secondary,Cariboo-Chilcotin,219,1113,2016/2017,2017,52.135557,-122.138529
364,2016,5941014,Likely Elem-Jr Secondary,Cariboo-Chilcotin,9,0,2016/2017,2017,52.616667,-121.55
365,2016,5941009,Maranatha Christian School,Cariboo-Chilcotin,81,56,2016/2017,2017,52.125602,-122.118273
366,2016,5941009,Marie Sharpe Elementary,Cariboo-Chilcotin,180,0,2016/2017,2017,52.133286,-122.144584
367,2016,5941015,Mile 108 Elementary,Cariboo-Chilcotin,200,0,2016/2017,2017,51.727252,-121.332338
368,2016,5941012,Mountview Elementary,Cariboo-Chilcotin,187,0,2016/2017,2017,52.099432,-122.123769
369,2016,5941039,Naghtaneqed Elem-Jr Secondary,Cariboo-Chilcotin,21,2,2016/2017,2017,51.483333,-123.883333
370,2016,5941009,Nesika Elementary,Cariboo-Chilcotin,330,0,2016/2017,2017,52.146288,-122.154676
371,2016,5941005,Peter Skene Ogden Secondary,Cariboo-Chilcotin,0,558,2016/2017,2017,51.636887,-121.300629
372,2016,5941005,PSO Outback Storefront,Cariboo-Chilcotin,0,16,2016/2017,2017,51.636887,-121.300629
373,2016,5941009,Sacred Heart Catholic School,Cariboo-Chilcotin,106,0,2016/2017,2017,52.136127,-122.146553
374,2016,5941009,Skyline Alternate School,Cariboo-Chilcotin,0,129,2016/2017,2017,52.133413,-122.145701
375,2016,5941039,Tatla Lake Elem-Jr Secondary,Cariboo-Chilcotin,13,4,2016/2017,2017,51.9,-124.6
376,2016,5941041,Yunesit'in ?Esgul,Cariboo-Chilcotin,23,4,2016/2017,2017,51.919445,-123.041667
377,2016,5941026,Barlow Creek Elementary,Quesnel,99,0,2016/2017,2017,53.020839,-122.455813
378,2016,5941021,Bouchie Lake Elementary School,Quesnel,146,0,2016/2017,2017,52.999873,-122.528792
379,2016,5941013,Carson Elementary School,Quesnel,162,0,2016/2017,2017,52.975569,-122.47727
380,2016,5941013,Continuing Ed SD 28,Quesnel,0,28,2016/2017,2017,52.976555,-122.493613
381,2016,5941013,Correlieu Secondary School,Quesnel,0,712,2016/2017,2017,52.966845,-122.517965
382,2016,5941013,Dragon Lake Elementary,Quesnel,201,0,2016/2017,2017,52.979722,-122.493611
383,2016,5941013,Kersley Elementary School,Quesnel,59,0,2016/2017,2017,52.979722,-122.493611
384,2016,5941019,Lakeview Elementary,Quesnel,266,0,2016/2017,2017,52.954021,-122.444285
385,2016,5941013,McNaughton Centre,Quesnel,0,57,2016/2017,2017,52.98238,-122.494148
386,2016,5941013,Nazko Valley Elementary,Quesnel,29,0,2016/2017,2017,52.979722,-122.493611
387,2016,5941019,North Cariboo Christian School,Quesnel,82,13,2016/2017,2017,52.924071,-122.465149
388,2016,5941021,Parkland Elementary,Quesnel,76,0,2016/2017,2017,53.084623,-122.438092
389,2016,5941013,Quesnel Distributed Learning,Quesnel,2,25,2016/2017,2017,52.981372,-122.466026
390,2016,5941013,Quesnel Junior School,Quesnel,0,416,2016/2017,2017,52.98235,-122.491449
391,2016,5941019,Red Bluff Lhtako Elementary,Quesnel,288,0,2016/2017,2017,52.964537,-122.466391
392,2016,5941013,Riverview Elementary,Quesnel,177,0,2016/2017,2017,52.977136,-122.50698
393,2016,5941013,St Ann's School,Quesnel,106,0,2016/2017,2017,52.987432,-122.499386
1,2016,5915022,Charles Dickens Elementary,Vancouver,486,0,2016/2017,2017,49.254855,-123.082391
2,2016,5915022,Chief Maquinna Elementary,Vancouver,215,0,2016/2017,2017,49.268031,-123.0508
3,2016,5915022,Children's Hearing and Speech Centre BC,Vancouver,10,0,2016/2017,2017,49.252358,-123.048349
4,2016,5915022,Collingwood Neighbourhood School,Vancouver,118,0,2016/2017,2017,49.236397,-123.032241
5,2016,5915022,Columbia College,Vancouver,0,59,2016/2017,2017,49.271461,-123.094482
6,2016,5915022,Corpus Christi School,Vancouver,297,0,2016/2017,2017,49.226701,-123.059056
7,2016,5915022,Crofton House,Vancouver,359,500,2016/2017,2017,49.234682,-123.175756
8,2016,5915022,David Livingstone Elementary,Vancouver,330,0,2016/2017,2017,49.250674,-123.097678
9,2016,5915022,David Lloyd George Elementary,Vancouver,387,0,2016/2017,2017,49.210233,-123.136354
10,2016,5915022,David Oppenheimer Elementary,Vancouver,341,0,2016/2017,2017,49.213644,-123.057958
11,2016,5915022,David Thompson Secondary,Vancouver,0,1475,2016/2017,2017,49.220889,-123.070546
12,2016,5915022,Dr A R Lord Elementary,Vancouver,143,0,2016/2017,2017,49.279585,-123.0389
13,2016,5915022,Dr Annie B Jamieson Elementary,Vancouver,483,0,2016/2017,2017,49.22707,-123.121016
14,2016,5915022,Dr George M Weir Elementary,Vancouver,495,0,2016/2017,2017,49.229775,-123.044449
15,2016,5915022,Dr H N MacCorkindale Elementary,Vancouver,237,0,2016/2017,2017,49.227695,-123.030487
16,2016,5915022,Dr R E McKechnie Elementary,Vancouver,264,0,2016/2017,2017,49.217631,-123.153551
17,2016,5915020,Eaton Arrowsmith School,Vancouver,47,28,2016/2017,2017,49.26138,-123.246724
18,2016,5915022,Ecole Jules Quesnel Elementary,Vancouver,432,0,2016/2017,2017,49.25902,-123.192581
19,2016,5915022,Edith Cavell Elementary,Vancouver,322,0,2016/2017,2017,49.252883,-123.117139
20,2016,5915022,Elsie Roy Elementary,Vancouver,422,0,2016/2017,2017,49.272147,-123.122614
21,2016,5915022,Emily Carr Elementary,Vancouver,295,0,2016/2017,2017,49.249871,-123.126073
22,2016,5915022,Eric Hamber Secondary,Vancouver,0,1605,2016/2017,2017,49.240218,-123.125751
23,2016,5915022,False Creek Elementary,Vancouver,278,0,2016/2017,2017,49.2671,-123.126681
24,2016,5915022,Fawkes Academy,Vancouver,36,15,2016/2017,2017,49.204677,-123.134683
25,2016,5915022,Florence Nightingale Elementary,Vancouver,218,0,2016/2017,2017,49.260207,-123.093994
26,2016,5915022,Fraser Academy,Vancouver,88,162,2016/2017,2017,49.262661,-123.157276
27,2016,5915022,G T Cunningham Elementary,Vancouver,352,0,2016/2017,2017,49.236825,-123.05745
28,2016,5915022,Garibaldi Annex,Vancouver,47,0,2016/2017,2017,49.27539,-123.05005
29,2016,5915022,General Brock Elementary,Vancouver,228,0,2016/2017,2017,49.241543,-123.10038
30,2016,5915022,General Gordon Elementary,Vancouver,378,0,2016/2017,2017,49.257173,-123.200934
31,2016,5915022,General Wolfe Elementary,Vancouver,391,0,2016/2017,2017,49.247312,-123.106283
32,2016,5915022,Gladstone Secondary,Vancouver,0,1053,2016/2017,2017,49.248611,-123.061613
33,2016,5915022,Graham Bruce Community Elementary,Vancouver,223,0,2016/2017,2017,49.242313,-123.025409
34,2016,5915022,Grandview Elementary,Vancouver,135,0,2016/2017,2017,49.266412,-123.073613
35,2016,5915022,Hastings Community Elementary,Vancouver,643,0,2016/2017,2017,49.282524,-123.050642
36,2016,5915022,Henry Hudson Elementary,Vancouver,389,0,2016/2017,2017,49.272039,-123.148663
37,2016,5915022,Immaculate Conception School,Vancouver,204,0,2016/2017,2017,49.247591,-123.187708
38,2016,5915022,J.W. Sexsmith Community Elementary,Vancouver,352,0,2016/2017,2017,49.217202,-123.108384
39,2016,5915022,John Henderson Elementary,Vancouver,489,0,2016/2017,2017,49.222737,-123.095093
40,2016,5915022,John Norquay Elementary,Vancouver,631,0,2016/2017,2017,49.241497,-123.051129
41,2016,5915022,John Oliver Secondary,Vancouver,0,1072,2016/2017,2017,49.231979,-123.092683
42,2016,5915022,Kerrisdale Annex,Vancouver,95,0,2016/2017,2017,49.232821,-123.176939
43,2016,5915022,Kerrisdale Elementary,Vancouver,591,0,2016/2017,2017,49.235716,-123.174493
44,2016,5915022,Killarney Secondary,Vancouver,0,1930,2016/2017,2017,49.225593,-123.044176
45,2016,5915022,King David High School,Vancouver,0,234,2016/2017,2017,49.233448,-123.122791
46,2016,5915022,King George Secondary,Vancouver,0,468,2016/2017,2017,49.289913,-123.136074
47,2016,5915022,Kitsilano Secondary,Vancouver,0,1330,2016/2017,2017,49.262081,-123.1636
48,2016,5915022,L'Ecole Bilingue Elementary,Vancouver,513,0,2016/2017,2017,49.258318,-123.130364
49,2016,5915022,Laura Secord Elementary,Vancouver,647,0,2016/2017,2017,49.261737,-123.060735
50,2016,5915022,Little Flower Academy,Vancouver,0,479,2016/2017,2017,49.248431,-123.142262
51,2016,5915022,Lord Beaconsfield Elementary,Vancouver,229,0,2016/2017,2017,49.251966,-123.052684
52,2016,5915022,Lord Byng Secondary,Vancouver,0,1308,2016/2017,2017,49.258147,-123.192258
53,2016,5915022,Lord Kitchener Elementary,Vancouver,454,0,2016/2017,2017,49.250148,-123.18115
54,2016,5915022,Lord Nelson Elementary,Vancouver,444,0,2016/2017,2017,49.2725,-123.059409
55,2016,5915022,Lord Roberts Annex,Vancouver,157,0,2016/2017,2017,49.283144,-123.129738
56,2016,5915022,Lord Roberts Elementary,Vancouver,545,0,2016/2017,2017,49.286765,-123.137923
57,2016,5915022,Lord Selkirk Annex,Vancouver,78,0,2016/2017,2017,49.245315,-123.07279
58,2016,5915022,Lord Selkirk Elementary,Vancouver,715,0,2016/2017,2017,49.24968,-123.068776
59,2016,5915022,Lord Strathcona Community Elementary,Vancouver,530,0,2016/2017,2017,49.280199,-123.091646
60,2016,5915022,Lord Tennyson Elementary,Vancouver,444,0,2016/2017,2017,49.262345,-123.149367
61,2016,5915022,Madrona School,Vancouver,101,17,2016/2017,2017,49.263896,-123.166245
62,2016,5915022,Magee Secondary,Vancouver,0,1111,2016/2017,2017,49.229819,-123.151485
63,2016,5915020,Magnussen School,Vancouver,21,0,2016/2017,2017,49.26138,-123.246724
64,2016,5915022,Maple Grove Elementary,Vancouver,481,0,2016/2017,2017,49.229844,-123.150211
65,2016,5915022,Mount Pleasant Elementary,Vancouver,218,0,2016/2017,2017,49.26404,-123.094042
66,2016,5915022,Nootka Community Elementary,Vancouver,420,0,2016/2017,2017,49.253792,-123.042942
67,2016,5915022,Norma Rose Point Elementary Junior,Vancouver,663,87,2016/2017,2017,49.257173,-123.200934
68,2016,5915022,Notre Dame Regional Secondary,Vancouver,0,743,2016/2017,2017,49.275803,-123.045567
69,2016,5915022,Our Lady of Perpetual Help,Vancouver,427,0,2016/2017,2017,49.264135,-123.196179
70,2016,5915022,Our Lady of Sorrows,Vancouver,240,0,2016/2017,2017,49.279376,-123.049394
71,2016,5915015,Pacific Rim Montessori Academy,Vancouver,38,0,2016/2017,2017,49.131985,-123.191277
72,2016,5915015,Pacific Spirit School,Vancouver,40,0,2016/2017,2017,49.170191,-123.083142
73,2016,5915022,Pacific Torah Institute,Vancouver,0,25,2016/2017,2017,49.233422,-123.127612
74,2016,5915022,Pacific Torah Institute International,Vancouver,0,12,2016/2017,2017,49.233422,-123.127612
75,2016,5915022,PALS Autism School,Vancouver,6,13,2016/2017,2017,49.28027,-123.056324
76,2016,5915022,Pattison High School,Vancouver,0,111,2016/2017,2017,49.280835,-123.125391
77,2016,5915022,Pattison School,Vancouver,0,37,2016/2017,2017,49.280835,-123.125391
78,2016,5915022,Pierre Elliott Trudeau Elementary,Vancouver,266,0,2016/2017,2017,49.214574,-123.09609
79,2016,5915022,Point Grey Secondary,Vancouver,0,1025,2016/2017,2017,49.237289,-123.153431
80,2016,5915022,Prince of Wales Secondary,Vancouver,0,1076,2016/2017,2017,49.245472,-123.157284
81,2016,5915022,Queen Alexandra Elementary,Vancouver,189,0,2016/2017,2017,49.262334,-123.077482
82,2016,5915022,Queen Elizabeth Annex,Vancouver,80,0,2016/2017,2017,49.248981,-123.195109
83,2016,5915022,Queen Elizabeth Elementary,Vancouver,379,0,2016/2017,2017,49.257173,-123.200934
84,2016,5915022,Queen Mary Elementary,Vancouver,349,0,2016/2017,2017,49.267825,-123.204986
85,2016,5915022,Queen Victoria Annex,Vancouver,139,0,2016/2017,2017,49.267181,-123.0665
86,2016,5915022,Quilchena Elementary,Vancouver,305,0,2016/2017,2017,49.237313,-123.151949
87,2016,5915022,Renfrew Community Elementary,Vancouver,430,0,2016/2017,2017,49.250749,-123.031954
88,2016,5915022,Royal Canadian College,Vancouver,0,124,2016/2017,2017,49.207242,-123.118608
89,2016,5915022,SD 39 DL Elementary,Vancouver,52,0,2016/2017,2017,49.251966,-123.052684
90,2016,5915022,SelfDesign Learning Community (DL),Vancouver,1273,882,2016/2017,2017,49.268702,-123.199434
91,2016,5915022,Shaughnessy Elementary,Vancouver,419,0,2016/2017,2017,49.248447,-123.143797
92,2016,5915022,Simon Fraser Elementary,Vancouver,309,0,2016/2017,2017,49.257173,-123.108382
93,2016,5915022,Sir Alexander Mackenzie Elementary,Vancouver,385,0,2016/2017,2017,49.234683,-123.086308
94,2016,5915022,Sir Charles Kingsford-Smith,Vancouver,311,0,2016/2017,2017,49.221365,-123.055716
95,2016,5915022,Sir Charles Tupper Secondary,Vancouver,0,997,2016/2017,2017,49.24962,-123.093863
96,2016,5915022,Sir Guy Carleton Community Elementary,Vancouver,129,0,2016/2017,2017,49.234075,-123.037642
97,2016,5915022,Sir James Douglas Annex,Vancouver,191,0,2016/2017,2017,49.215012,-123.073047
98,2016,5915022,Sir James Douglas Elementary,Vancouver,483,0,2016/2017,2017,49.216049,-123.064653
99,2016,5915022,Sir John Franklin Community,Vancouver,195,0,2016/2017,2017,49.282544,-123.028265
100,2016,5915022,Sir Matthew Begbie Elementary,Vancouver,334,0,2016/2017,2017,49.271812,-123.037656
101,2016,5915022,Sir Richard McBride Annex,Vancouver,80,0,2016/2017,2017,49.241841,-123.085024
102,2016,5915022,Sir Richard McBride Elementary,Vancouver,344,0,2016/2017,2017,49.243521,-123.07819
103,2016,5915022,Sir Sandford Fleming Elementary,Vancouver,491,0,2016/2017,2017,49.226479,-123.076546
104,2016,5915022,Sir Wilfred Grenfell Community,Vancouver,433,0,2016/2017,2017,49.243123,-123.03449
105,2016,5915022,Sir Wilfrid Laurier Elementary,Vancouver,319,0,2016/2017,2017,49.218208,-123.124995
106,2016,5915022,Sir William Macdonald Community,Vancouver,85,0,2016/2017,2017,49.280624,-123.064323
107,2016,5915022,Sir William Osler Elementary,Vancouver,211,0,2016/2017,2017,49.231012,-123.132625
108,2016,5915022,Sir Winston Churchill Secondary,Vancouver,0,2021,2016/2017,2017,49.220418,-123.125642
109,2016,5915022,Sir Wm Van Horne Elementary,Vancouver,396,0,2016/2017,2017,49.231795,-123.106944
110,2016,5915022,Southlands Elementary,Vancouver,235,0,2016/2017,2017,49.237545,-123.197804
111,2016,5915022,St Andrew's,Vancouver,206,0,2016/2017,2017,49.227214,-123.095856
112,2016,5915022,St Anthony of Padua,Vancouver,203,0,2016/2017,2017,49.204465,-123.137008
113,2016,5915022,St Augustine's,Vancouver,268,0,2016/2017,2017,49.264805,-123.153927
114,2016,5915022,St Francis of Assisi,Vancouver,222,0,2016/2017,2017,49.27687,-123.065389
115,2016,5915022,St Francis Xavier,Vancouver,444,0,2016/2017,2017,49.266462,-123.094521
116,2016,5915022,St George's School,Vancouver,380,769,2016/2017,2017,49.246947,-123.200146
117,2016,5915022,St John's International,Vancouver,0,224,2016/2017,2017,49.264041,-123.147899
118,2016,5915022,St John's School,Vancouver,317,225,2016/2017,2017,49.262931,-123.155555
119,2016,5915022,St Joseph's,Vancouver,185,0,2016/2017,2017,49.255914,-123.071647
120,2016,5915022,St Jude's,Vancouver,228,0,2016/2017,2017,49.256546,-123.042627
121,2016,5915022,St Mary's,Vancouver,284,0,2016/2017,2017,49.237502,-123.033706
122,2016,5915022,St Patrick Regional Secondary,Vancouver,0,493,2016/2017,2017,49.261405,-123.102604
123,2016,5915022,St Patrick's Elementary,Vancouver,223,0,2016/2017,2017,49.259772,-123.103062
124,2016,5915022,Stratford Hall,Vancouver,318,195,2016/2017,2017,49.257469,-123.069463
125,2016,5915022,Tecumseh Annex,Vancouver,86,0,2016/2017,2017,49.237218,-123.073595
126,2016,5915022,Tecumseh Elementary,Vancouver,449,0,2016/2017,2017,49.231507,-123.067781
127,2016,5915022,Templeton Secondary,Vancouver,0,772,2016/2017,2017,49.277918,-123.062573
128,2016,5915022,The Westside School,Vancouver,135,79,2016/2017,2017,49.277571,-123.113444
129,2016,5915022,Thunderbird Elementary,Vancouver,211,0,2016/2017,2017,49.263524,-123.031071
130,2016,5915022,Tillicum Community Annex,Vancouver,86,0,2016/2017,2017,49.28625,-123.055424
131,2016,5915022,Trafalgar Elementary,Vancouver,483,0,2016/2017,2017,49.249385,-123.165256
132,2016,5915022,Tyee Elementary,Vancouver,198,0,2016/2017,2017,49.253413,-123.074013
133,2016,5915020,University Hill Elementary,Vancouver,359,0,2016/2017,2017,49.273067,-123.23744
134,2016,5915020,University Hill Secondary,Vancouver,0,719,2016/2017,2017,49.253926,-123.240762
135,2016,5915020,University Transition Program,Vancouver,0,42,2016/2017,2017,49.261726,-123.23439
136,2016,5915022,Vancouver Alternate,Vancouver,0,197,2016/2017,2017,49.2633,-123.140261
137,2016,5915022,Vancouver Christian,Vancouver,376,0,2016/2017,2017,49.254712,-123.028567
138,2016,5915022,Vancouver College,Vancouver,265,806,2016/2017,2017,49.23496,-123.136171
139,2016,5915022,Vancouver Formosa Academy,Vancouver,1,32,2016/2017,2017,49.233748,-123.046367
140,2016,5915022,Vancouver Hebrew Academy,Vancouver,84,0,2016/2017,2017,49.215472,-123.141369
141,2016,5915022,Vancouver Learning Network,Vancouver,0,2225,2016/2017,2017,49.231979,-123.092683
142,2016,5915022,Vancouver Talmud Torah Elementary,Vancouver,411,0,2016/2017,2017,49.24758,-123.126822
143,2016,5915022,Vancouver Technical Secondary,Vancouver,0,1606,2016/2017,2017,49.260103,-123.05128
144,2016,5915022,VSB Adult Education,Vancouver,0,861,2016/2017,2017,49.2633,-123.140261
145,2016,5915022,Walter Moberly Elementary,Vancouver,483,0,2016/2017,2017,49.215641,-123.0843
146,2016,5915022,Waverley Elementary,Vancouver,398,0,2016/2017,2017,49.227705,-123.055493
147,2016,5915022,West Coast Christian School,Vancouver,103,78,2016/2017,2017,49.284985,-123.044536
148,2016,5915022,West Point Grey Academy,Vancouver,529,385,2016/2017,2017,49.267066,-123.201507
149,2016,5915022,Westside Montessori Academy,Vancouver,63,0,2016/2017,2017,49.25677,-123.049592
150,2016,5915022,Windermere Community Secondary,Vancouver,0,1080,2016/2017,2017,49.247473,-123.037846
151,2016,5915022,York House School,Vancouver,320,320,2016/2017,2017,49.248848,-123.14034
152,2016,5915029,Access New West Online Virtual School,New Westminster,0,241,2016/2017,2017,49.200183,-122.915442
153,2016,5915029,Al-Hidayah School,New Westminster,50,0,2016/2017,2017,49.202881,-122.907303
154,2016,5915029,Connaught Heights Elementary,New Westminster,176,0,2016/2017,2017,49.202733,-122.954553
155,2016,5915029,New Westminster Continuing Education,New Westminster,0,761,2016/2017,2017,49.200183,-122.915442
156,2016,5915029,Ecole Glenbrook Middle School,New Westminster,413,199,2016/2017,2017,49.220155,-122.911476
157,2016,5915029,Ecole Qayqayt Elementary,New Westminster,495,0,2016/2017,2017,49.207698,-122.905542
158,2016,5915029,F W Howay Elementary,New Westminster,136,0,2016/2017,2017,49.225258,-122.91001
159,2016,5915029,Herbert Spencer Elementary,New Westminster,497,0,2016/2017,2017,49.216872,-122.914507
160,2016,5915029,Home Learners Program,New Westminster,164,12,2016/2017,2017,49.232732,-122.890156
161,2016,5915062,Island Discovery Learning Community,New Westminster,245,34,2016/2017,2017,49.341542,-123.365632
162,2016,5915029,Lord Kelvin Elementary,New Westminster,366,0,2016/2017,2017,49.211306,-122.930169
163,2016,5901035,?A'q'amnik Primary School,Southeast Kootenay,53,0,2016/2017,2017,49.582977,-115.755187
164,2016,5901022,Amy Woodland Elementary,Southeast Kootenay,273,0,2016/2017,2017,49.502802,-115.768734
165,2016,5901003,Elkford Elementary Secondary,Southeast Kootenay,32,150,2016/2017,2017,50.024445,-114.921667
166,2016,5901012,Fernie Secondary,Southeast Kootenay,55,284,2016/2017,2017,49.514039,-115.054148
167,2016,5901006,Frank J Mitchell Elementary,Southeast Kootenay,357,0,2016/2017,2017,49.736227,-114.893145
168,2016,5901022,Gordon Terrace Elementary,Southeast Kootenay,258,0,2016/2017,2017,49.497102,-115.774098
169,2016,5901022,Highlands Elementary,Southeast Kootenay,278,0,2016/2017,2017,49.501955,-115.735725
170,2016,5901012,Isabella Dicken Elementary,Southeast Kootenay,408,0,2016/2017,2017,49.509617,-115.054901
171,2016,5901019,Jaffray Elem-Jr Secondary,Southeast Kootenay,152,34,2016/2017,2017,49.37225,-115.299585
172,2016,5901022,Kootenay Christian Academy,Southeast Kootenay,137,24,2016/2017,2017,49.522001,-115.755063
173,2016,5901012,Kootenay Discovery School,Southeast Kootenay,3,167,2016/2017,2017,49.511794,-115.052702
174,2016,5901022,Kootenay Educational Services,Southeast Kootenay,0,93,2016/2017,2017,49.512517,-115.757886
175,2016,5901022,Kootenay Orchards Elementary,Southeast Kootenay,228,0,2016/2017,2017,49.496269,-115.754149
176,2016,5901022,Laurie Middle School,Southeast Kootenay,106,257,2016/2017,2017,49.508481,-115.756994
177,2016,5901022,Mount Baker Secondary,Southeast Kootenay,0,843,2016/2017,2017,49.512172,-115.761886
178,2016,5901022,Parkland Middle School,Southeast Kootenay,134,287,2016/2017,2017,49.497791,-115.779329
179,2016,5901022,Pinewood Elementary,Southeast Kootenay,116,0,2016/2017,2017,49.514365,-115.774563
180,2016,5901003,Rocky Mountain Elementary,Southeast Kootenay,237,0,2016/2017,2017,50.008169,-114.933144
181,2016,5901006,Sparwood Secondary,Southeast Kootenay,42,206,2016/2017,2017,49.734691,-114.890414
182,2016,5901022,St Mary's Catholic Independent,Southeast Kootenay,130,0,2016/2017,2017,49.503719,-115.757759
183,2016,5901022,Steeples Elementary,Southeast Kootenay,187,0,2016/2017,2017,49.518201,-115.747892
184,2016,5901022,T M Roberts Elementary,Southeast Kootenay,376,0,2016/2017,2017,49.504533,-115.778178
185,2016,5901012,The Fernie Academy,Southeast Kootenay,197,92,2016/2017,2017,49.50264,-115.062066
186,2016,5939007,Alexander Park Elementary,Rocky Mountain,229,0,2016/2017,2017,51.297778,-116.964722
187,2016,5901039,David Thompson Secondary,Rocky Mountain,0,416,2016/2017,2017,50.503009,-116.041998
188,2016,5901048,Edgewater Elementary,Rocky Mountain,104,0,2016/2017,2017,50.695285,-116.136414
189,2016,5901039,Eileen Madson Primary School,Rocky Mountain,211,0,2016/2017,2017,50.496788,-116.041295
190,2016,5939007,Golden Alternate School,Rocky Mountain,0,38,2016/2017,2017,51.29766,-116.948764
191,2016,5939007,Golden Secondary,Rocky Mountain,0,292,2016/2017,2017,51.29766,-116.948764
192,2016,5901039,J Alfred Laird Elementary,Rocky Mountain,217,0,2016/2017,2017,50.504505,-116.037837
193,2016,5901028,Kimberley Alternate School,Rocky Mountain,0,21,2016/2017,2017,49.68676,-115.980519
194,2016,5901028,Kimberley Independent School,Rocky Mountain,66,0,2016/2017,2017,49.665733,-115.96785
195,2016,5939007,Lady Grey Elementary,Rocky Mountain,213,0,2016/2017,2017,51.296112,-116.972899
196,2016,5901028,Lindsay Park Elementary,Rocky Mountain,176,0,2016/2017,2017,49.692427,-115.983667
197,2016,5901043,Martin Morigeau Elementary,Rocky Mountain,57,0,2016/2017,2017,50.160278,-115.808889
198,2016,5901028,Marysville Elementary,Rocky Mountain,183,0,2016/2017,2017,49.635052,-115.951189
199,2016,5901028,McKim Middle School,Rocky Mountain,356,0,2016/2017,2017,49.679464,-115.979173
200,2016,5939007,Nicholson Elementary,Rocky Mountain,89,0,2016/2017,2017,51.297778,-116.964722
201,2016,5901039,Open Doors Alternate Education,Rocky Mountain,0,34,2016/2017,2017,50.505833,-116.030556
202,2016,5901028,Rocky Mountain Distributed Learning,Rocky Mountain,7,114,2016/2017,2017,49.671138,-115.979785
203,2016,5901028,Selkirk Secondary School,Rocky Mountain,0,405,2016/2017,2017,49.68676,-115.980519
204,2016,5901046,Windermere Elementary,Rocky Mountain,153,0,2016/2017,2017,50.464998,-115.986321
205,2016,5903004,Adam Robertson Elementary,Kootenay Lake,321,0,2016/2017,2017,49.099756,-116.514802
206,2016,5903041,Blewett Elementary School,Kootenay Lake,158,0,2016/2017,2017,49.49077,-117.369179
207,2016,5903052,Brent Kennedy Elementary,Kootenay Lake,234,0,2016/2017,2017,49.441905,-117.54444
208,2016,5903013,Canyon/Lister Elementary,Kootenay Lake,131,0,2016/2017,2017,49.081958,-116.447771
209,2016,5903015,CHEK-ABC,Kootenay Lake,95,75,2016/2017,2017,49.505855,-117.268852
210,2016,5903010,Crawford Bay Elem-Secondary,Kootenay Lake,42,35,2016/2017,2017,49.680298,-116.827878
211,2016,5903015,Distance Ed School of the Kootenays,Kootenay Lake,38,388,2016/2017,2017,49.48911,-117.293206
212,2016,5903013,Erickson Elementary,Kootenay Lake,223,0,2016/2017,2017,49.091809,-116.469424
213,2016,5903004,Homelinks - Creston,Kootenay Lake,71,84,2016/2017,2017,49.0975,-116.513056
214,2016,5903023,Homelinks - Kaslo,Kootenay Lake,11,0,2016/2017,2017,49.911491,-116.911715
215,2016,5903015,Homelinks - Nelson,Kootenay Lake,32,10,2016/2017,2017,49.489759,-117.286285
216,2016,5903019,Homelinks - Slocan,Kootenay Lake,6,0,2016/2017,2017,49.763933,-117.469708
217,2016,5903015,Hume Elementary School,Kootenay Lake,189,0,2016/2017,2017,49.500075,-117.279352
218,2016,5903023,J V Humphries Elem-Secondary,Kootenay Lake,124,99,2016/2017,2017,49.912176,-116.911233
219,2016,5903039,Jewett Elementary,Kootenay Lake,9,0,2016/2017,2017,50.233333,-116.983333
220,2016,5903004,Kootenay Valley Christian School,Kootenay Lake,20,4,2016/2017,2017,49.108431,-116.529233
221,2016,5903015,L V Rogers Secondary,Kootenay Lake,0,735,2016/2017,2017,49.502218,-117.272627
222,2016,5903013,Mormon Hills Elementary Secondary,Kootenay Lake,86,69,2016/2017,2017,49.014565,-116.432216
223,2016,5903052,Mount Sentinel Secondary,Kootenay Lake,45,243,2016/2017,2017,49.466667,-117.516667
224,2016,5903015,Nelson Christian Community School,Kootenay Lake,43,4,2016/2017,2017,49.505855,-117.268852
225,2016,5903041,Nelson Waldorf School,Kootenay Lake,134,15,2016/2017,2017,49.458901,-117.282713
226,2016,5903043,Prince Charles Secondary,Kootenay Lake,0,481,2016/2017,2017,49.511361,-117.28962
227,2016,5903015,REACH,Kootenay Lake,0,22,2016/2017,2017,49.502218,-117.272627
228,2016,5903041,Redfish Elementary School,Kootenay Lake,87,0,2016/2017,2017,49.613791,-117.048302
229,2016,5903015,Rosemont Elementary School,Kootenay Lake,129,0,2016/2017,2017,49.481019,-117.302936
230,2016,5903011,Salmo Elementary School,Kootenay Lake,192,0,2016/2017,2017,49.193333,-117.278611
231,2016,5903011,Salmo Secondary,Kootenay Lake,23,106,2016/2017,2017,49.193333,-117.278611
232,2016,5903015,South Nelson Elementary,Kootenay Lake,185,0,2016/2017,2017,49.489759,-117.286285
233,2016,5903015,St Joseph School,Kootenay Lake,139,6,2016/2017,2017,49.489057,-117.290973
234,2016,5903015,Trafalgar Middle School,Kootenay Lake,232,140,2016/2017,2017,49.487164,-117.287832
235,2016,5903019,W.E. Graham Community School,Kootenay Lake,54,17,2016/2017,2017,49.767778,-117.466111
236,2016,5903015,Wildflower,Kootenay Lake,148,16,2016/2017,2017,49.48911,-117.293206
237,2016,5903052,Winlaw Elementary School,Kootenay Lake,95,0,2016/2017,2017,49.616667,-117.566667
238,2016,5903807,Yaqan Nukiy School,Kootenay Lake,83,0,2016/2017,2017,49.066109,-116.515656
394,2016,5941013,Voyageur Elementary School,Quesnel,304,0,2016/2017,2017,52.97739,-122.525265
395,2016,5941025,Wells Barkerville Elementary,Quesnel,20,0,2016/2017,2017,53.104445,-121.5725
396,2016,5909020,A D Rundle Middle School,Chilliwack,115,207,2016/2017,2017,49.159393,-121.961367
397,2016,5909020,Bernard Elementary,Chilliwack,288,0,2016/2017,2017,49.163526,-121.965933
398,2016,5909020,Cascade Christian School,Chilliwack,84,19,2016/2017,2017,49.158899,-121.939413
399,2016,5909020,Cheam Elementary,Chilliwack,200,0,2016/2017,2017,49.181743,-121.893522
400,2016,5909020,Chilliwack Adventist Christian School,Chilliwack,17,0,2016/2017,2017,49.180425,-121.951444
401,2016,5909020,Chilliwack Central Elementary Community,Chilliwack,246,0,2016/2017,2017,49.173511,-121.952652
402,2016,5909020,Chilliwack Middle School,Chilliwack,190,368,2016/2017,2017,49.174454,-121.942962
403,2016,5909020,Chilliwack Secondary,Chilliwack,0,1059,2016/2017,2017,49.174588,-121.942807
404,2016,5909020,Continuing Ed SD 33,Chilliwack,0,41,2016/2017,2017,49.16299,-121.947527
405,2016,5909035,Cultus Lake Community School,Chilliwack,172,0,2016/2017,2017,49.072988,-121.976329
406,2016,5909020,East Chilliwack Elementary,Chilliwack,297,0,2016/2017,2017,49.161728,-121.863535
407,2016,5909020,Evans Elementary,Chilliwack,328,0,2016/2017,2017,49.139845,-121.977569
408,2016,5909020,F G Leary Fine Arts Elementary,Chilliwack,333,0,2016/2017,2017,49.171041,-121.921651
409,2016,5909020,Fraser Valley Distance Education,Chilliwack,100,1257,2016/2017,2017,49.174551,-121.942903
410,2016,5909020,Greendale Elementary,Chilliwack,153,0,2016/2017,2017,49.122226,-122.045606
411,2016,5909020,GW Graham Middle Secondary,Chilliwack,150,847,2016/2017,2017,49.106644,-121.952796
412,2016,5909020,Highroad Academy,Chilliwack,259,168,2016/2017,2017,49.161983,-121.933948
413,2016,5909020,John Calvin School,Chilliwack,241,0,2016/2017,2017,49.079523,-122.0676
414,2016,5909020,Little Mountain Elementary,Chilliwack,357,0,2016/2017,2017,49.18096,-121.929142
415,2016,5909020,McCammon Traditional Elementary,Chilliwack,277,0,2016/2017,2017,49.176547,-121.967743
416,2016,5909020,Mount Cheam Christian School,Chilliwack,245,114,2016/2017,2017,49.177425,-121.870241
417,2016,5909020,Mount Slesse Middle School,Chilliwack,209,399,2016/2017,2017,49.10865,-121.976791
418,2016,5909020,Promontory Heights Community Elementary,Chilliwack,621,0,2016/2017,2017,49.100985,-121.944963
419,2016,5909020,Robertson Elementary,Chilliwack,264,0,2016/2017,2017,49.157318,-121.948914
420,2016,5909020,Rosedale Mennonite School,Chilliwack,6,4,2016/2017,2017,49.183333,-121.8
421,2016,5909020,Rosedale Traditional Community,Chilliwack,324,174,2016/2017,2017,49.175425,-121.817391
422,2016,5909020,Sardis Elementary,Chilliwack,511,0,2016/2017,2017,49.127758,-121.957352
423,2016,5909020,Sardis Secondary,Chilliwack,0,1233,2016/2017,2017,49.122757,-121.966347
424,2016,5909020,St Mary's,Chilliwack,202,0,2016/2017,2017,49.16389,-121.962018
425,2016,5909020,Strathcona Elementary,Chilliwack,437,0,2016/2017,2017,49.186828,-121.941473
426,2016,5909020,Timothy Christian School,Chilliwack,161,126,2016/2017,2017,49.190694,-121.829398
427,2016,5909020,Tyson Elementary,Chilliwack,286,0,2016/2017,2017,49.118343,-121.974585
428,2016,5909020,Unity Christian School,Chilliwack,268,166,2016/2017,2017,49.166667,-121.95
429,2016,5909020,Unsworth Elementary,Chilliwack,513,0,2016/2017,2017,49.105045,-121.99756
430,2016,5909020,Vedder Elementary,Chilliwack,485,0,2016/2017,2017,49.111266,-121.956967
431,2016,5909020,Vedder Middle School,Chilliwack,248,358,2016/2017,2017,49.118375,-121.96387
432,2016,5909020,Watson Elementary,Chilliwack,479,0,2016/2017,2017,49.111222,-121.970666
433,2016,5909020,Yarrow Community School,Chilliwack,309,0,2016/2017,2017,49.085945,-122.04558
434,2016,5909052,Abbotsford Christian School,Abbotsford,582,401,2016/2017,2017,49.061563,-122.255554
435,2016,5909052,Abbotsford Middle School,Abbotsford,427,243,2016/2017,2017,49.041975,-122.303183
436,2016,5909052,Abbotsford Senior Secondary School,Abbotsford,0,1061,2016/2017,2017,49.042068,-122.297878
437,2016,5909052,Abbotsford Traditional Middle School,Abbotsford,269,120,2016/2017,2017,49.043314,-122.355307
438,2016,5909052,Abbotsford Traditional Senior Secondary,Abbotsford,0,466,2016/2017,2017,49.043314,-122.355307
439,2016,5909052,Abbotsford Virtual School,Abbotsford,69,501,2016/2017,2017,49.051229,-122.284043
440,2016,5909052,Aberdeen Elementary,Abbotsford,193,0,2016/2017,2017,49.056573,-122.426207
441,2016,5909052,Alexander Elementary,Abbotsford,215,0,2016/2017,2017,49.04271,-122.28826
442,2016,5909052,ASIA - North Poplar,Abbotsford,429,0,2016/2017,2017,49.038329,-122.335936
443,2016,5909052,ASIA - Sumas Mountain 6-9,Abbotsford,136,60,2016/2017,2017,49.050287,-122.221581
444,2016,5909052,ASIA - Sumas Mountain 9-12,Abbotsford,0,173,2016/2017,2017,49.050287,-122.221581
445,2016,5909052,Auguston Traditional Elementary,Abbotsford,371,0,2016/2017,2017,49.084033,-122.218122
446,2016,5909052,Bakerview Ctr for Learning - Alt,Abbotsford,0,246,2016/2017,2017,49.038149,-122.320702
447,2016,5909052,Bakerview Ctr for Learning - CE,Abbotsford,0,2,2016/2017,2017,49.038149,-122.320702
448,2016,5909052,Barrowtown Elementary,Abbotsford,69,0,2016/2017,2017,49.095769,-122.095251
449,2016,5909052,Blue Jay Elementary,Abbotsford,402,0,2016/2017,2017,49.057164,-122.365302
450,2016,5909052,Bradner Elementary,Abbotsford,160,0,2016/2017,2017,49.098181,-122.426497
451,2016,5909052,Centennial Park Elementary,Abbotsford,275,0,2016/2017,2017,49.047997,-122.315435
452,2016,5909052,Chief Dan George Middle,Abbotsford,361,177,2016/2017,2017,49.066036,-122.313722
453,2016,5909052,Clayburn Middle School,Abbotsford,474,240,2016/2017,2017,49.06996,-122.251462
454,2016,5909052,Clearbrook Elementary,Abbotsford,477,0,2016/2017,2017,49.067647,-122.338138
455,2016,5909052,Colleen and Gordie Howe Middle School,Abbotsford,294,133,2016/2017,2017,49.059711,-122.337818
456,2016,5909052,Cornerstone Christian School,Abbotsford,128,23,2016/2017,2017,49.05,-122.283333
457,2016,5909052,Dasmesh Punjabi School,Abbotsford,577,209,2016/2017,2017,49.108883,-122.294175
458,2016,5909052,Dave Kandal Elementary,Abbotsford,262,0,2016/2017,2017,49.066229,-122.377292
459,2016,5909052,Dogwood School,Abbotsford,19,26,2016/2017,2017,49.051239,-122.286297
460,2016,5909052,Dormick Park Elementary,Abbotsford,292,0,2016/2017,2017,49.043837,-122.332583
461,2016,5909052,Dr Roberta Bondar Elementary,Abbotsford,235,0,2016/2017,2017,49.071365,-122.318869
462,2016,5909052,Dr Thomas A Swift Elementary,Abbotsford,331,0,2016/2017,2017,49.066371,-122.260895
463,2016,5909052,Eugene Reimer Middle School,Abbotsford,219,146,2016/2017,2017,49.064787,-122.361035
464,2016,5909052,Godson Elementary,Abbotsford,359,0,2016/2017,2017,49.041886,-122.306476
465,2016,5909052,Harry Sayers Elementary,Abbotsford,436,0,2016/2017,2017,49.067681,-122.356352
466,2016,5909052,Jackson Elementary,Abbotsford,153,0,2016/2017,2017,49.031034,-122.305383
467,2016,5909052,John MacLure Community School,Abbotsford,284,0,2016/2017,2017,49.056371,-122.321662
468,2016,5909052,King Traditional Elementary,Abbotsford,400,0,2016/2017,2017,49.031241,-122.427225
469,2016,5909052,Margaret Stenersen Elementary,Abbotsford,446,0,2016/2017,2017,49.057872,-122.269869
470,2016,5909052,Matsqui Elementary,Abbotsford,122,0,2016/2017,2017,49.10549,-122.292468
471,2016,5909052,McMillan Elementary,Abbotsford,416,0,2016/2017,2017,49.044498,-122.259387
472,2016,5909052,Mennonite Educational Institute,Abbotsford,703,675,2016/2017,2017,49.076009,-122.3458
808,2016,5915022,Britannia Community Elementary,Vancouver,193,0,2016/2017,2017,49.274398,-123.071155
809,2016,5915022,Britannia Community Secondary,Vancouver,0,560,2016/2017,2017,49.274767,-123.071951
810,2016,5915022,Captain James Cook Elementary,Vancouver,349,0,2016/2017,2017,49.219005,-123.035814
811,2016,5915022,Carnarvon Community Elementary,Vancouver,408,0,2016/2017,2017,49.256612,-123.174338
812,2016,5915022,Century High School,Vancouver,0,130,2016/2017,2017,49.263385,-123.145314
813,2016,5915022,Champlain Heights Annex,Vancouver,106,0,2016/2017,2017,49.21407,-123.030662
814,2016,5915022,Champlain Heights Community Elementary,Vancouver,251,0,2016/2017,2017,49.220357,-123.027791
815,2016,5915022,Charles Dickens Annex,Vancouver,117,0,2016/2017,2017,49.25021,-123.082852
816,2016,5915029,Lord Tweedsmuir Elementary,New Westminster,363,0,2016/2017,2017,49.205951,-122.942505
817,2016,5915029,New Westminster Secondary,New Westminster,0,1901,2016/2017,2017,49.214888,-122.928703
818,2016,5915029,POWER Alternate Secondary School,New Westminster,0,71,2016/2017,2017,49.200183,-122.915442
819,2016,5915029,Purpose Independent Secondary School,New Westminster,0,75,2016/2017,2017,49.202285,-122.911022
820,2016,5915029,Queen Elizabeth Elementary,New Westminster,410,0,2016/2017,2017,49.184328,-122.943198
821,2016,5915029,Queensborough Middle School,New Westminster,198,60,2016/2017,2017,49.185364,-122.940673
822,2016,5915029,Richard McBride Elementary,New Westminster,434,0,2016/2017,2017,49.226866,-122.898667
823,2016,5915029,Royal City Alternate Program,New Westminster,0,30,2016/2017,2017,49.204146,-122.911324
824,2016,5915029,Sigma,New Westminster,0,85,2016/2017,2017,49.214888,-122.928703
825,2016,5915029,Urban Academy,New Westminster,132,22,2016/2017,2017,49.207934,-122.906933
826,2016,5915029,Vancouver International College,New Westminster,0,49,2016/2017,2017,49.212903,-122.920739
827,2016,5915025,Alpha Alternate Secondary Program,Burnaby,0,5,2016/2017,2017,49.275538,-123.00032
828,2016,5915025,Alpha Secondary,Burnaby,0,1032,2016/2017,2017,49.275538,-123.00032
829,2016,5915025,Armstrong Elementary,Burnaby,389,0,2016/2017,2017,49.233919,-122.907447
830,2016,5915025,Aubrey Elementary,Burnaby,383,0,2016/2017,2017,49.274541,-122.977036
831,2016,5915025,BC Provincial School for the Deaf Elem,Burnaby,49,0,2016/2017,2017,49.2166,-123.004079
832,2016,5915025,BC Provincial School for the Deaf Sec,Burnaby,0,45,2016/2017,2017,49.214889,-122.985021
833,2016,5915025,Brantford Elementary,Burnaby,353,0,2016/2017,2017,49.224899,-122.967727
834,2016,5915025,Brentwood Park Elementary,Burnaby,478,0,2016/2017,2017,49.271421,-122.992215
835,2016,5915025,Buckingham Elementary,Burnaby,228,0,2016/2017,2017,49.232987,-122.955919
836,2016,5915025,Burnaby Central Secondary,Burnaby,0,1458,2016/2017,2017,49.240899,-122.976164
837,2016,5915025,Burnaby Continuing Education,Burnaby,0,261,2016/2017,2017,49.248461,-122.98707
838,2016,5915025,Burnaby Montessori School,Burnaby,10,0,2016/2017,2017,49.249093,-122.974761
839,2016,5915025,Burnaby Mountain Secondary,Burnaby,0,1454,2016/2017,2017,49.255978,-122.910054
840,2016,5915025,Burnaby North Secondary,Burnaby,0,1786,2016/2017,2017,49.278611,-122.971218
841,2016,5915025,Burnaby Online Program,Burnaby,17,1198,2016/2017,2017,49.232883,-122.91599
842,2016,5915025,Burnaby South Alternate Secondary Prg,Burnaby,0,20,2016/2017,2017,49.214889,-122.985021
843,2016,5915025,Burnaby South Secondary,Burnaby,0,1751,2016/2017,2017,49.214889,-122.985021
844,2016,5915025,Byrne Creek Community School,Burnaby,0,1027,2016/2017,2017,49.208875,-122.94953
845,2016,5915025,Cameron Elementary,Burnaby,402,0,2016/2017,2017,49.25228,-122.900661
846,2016,5915025,Royal Oak Secondary Program,Burnaby,0,18,2016/2017,2017,49.248461,-122.98707
847,2016,5915025,Capitol Hill Elementary,Burnaby,359,0,2016/2017,2017,49.280873,-122.980888
848,2016,5915025,Cariboo Hill Alternate Secondary Program,Burnaby,0,30,2016/2017,2017,49.232883,-122.91599
849,2016,5915025,Cariboo Hill Secondary,Burnaby,0,613,2016/2017,2017,49.232883,-122.91599
850,2016,5915025,Carver Christian High School,Burnaby,45,279,2016/2017,2017,49.236136,-122.900027
851,2016,5915025,Cascade Heights Elementary,Burnaby,437,0,2016/2017,2017,49.245732,-123.019846
852,2016,5915025,Chaffey-Burke Elementary,Burnaby,520,0,2016/2017,2017,49.234147,-123.006176
853,2016,5915025,Clinton Elementary,Burnaby,312,0,2016/2017,2017,49.212932,-122.978187
854,2016,5915025,Confederation Park Elementary,Burnaby,222,0,2016/2017,2017,49.282793,-122.996443
855,2016,5915025,Deer Lake SDA School,Burnaby,161,114,2016/2017,2017,49.241798,-122.983037
856,2016,5915025,Douglas Road Elementary,Burnaby,250,0,2016/2017,2017,49.248893,-122.980657
857,2016,5915025,Ecole Inman Elementary,Burnaby,390,0,2016/2017,2017,49.238795,-123.016568
858,2016,5915025,Ecole Seaforth Elementary,Burnaby,502,0,2016/2017,2017,49.250929,-122.93571
859,2016,5915025,Edmonds Community,Burnaby,288,0,2016/2017,2017,49.222271,-122.940323
860,2016,5915025,Forest Grove Elementary,Burnaby,305,0,2016/2017,2017,49.264235,-122.916291
861,2016,5915025,Fraser Park Secondary Program (Open),Burnaby,0,6,2016/2017,2017,49.185823,-122.989882
862,2016,5915025,Fraser Park Secondary Program (Secure),Burnaby,0,22,2016/2017,2017,49.185823,-122.989882
863,2016,5915025,Gilmore Community Elementary,Burnaby,364,0,2016/2017,2017,49.284225,-123.014087
864,2016,5915025,Gilpin Elementary,Burnaby,231,0,2016/2017,2017,49.243808,-122.984565
865,2016,5915025,Glenwood Elementary,Burnaby,94,0,2016/2017,2017,49.205948,-122.979773
866,2016,5915025,Holy Cross Elementary School,Burnaby,249,0,2016/2017,2017,49.271457,-122.992119
867,2016,5915025,John Knox Christian School,Burnaby,405,0,2016/2017,2017,49.226466,-122.920753
868,2016,5915025,Kitchener Elementary,Burnaby,294,0,2016/2017,2017,49.272513,-123.014313
869,2016,5915025,Lakeview Elementary,Burnaby,274,0,2016/2017,2017,49.229641,-122.945142
870,2016,5915025,Lochdale Community,Burnaby,301,0,2016/2017,2017,49.273354,-122.959192
871,2016,5915025,Lyndhurst Elementary,Burnaby,99,0,2016/2017,2017,49.258893,-122.895635
872,2016,5915025,Maples Secondary School,Burnaby,0,4,2016/2017,2017,49.253121,-123.004399
873,2016,5915025,Marlborough Elementary,Burnaby,933,0,2016/2017,2017,49.229781,-122.991466
874,2016,5915025,Maywood Community School,Burnaby,435,0,2016/2017,2017,49.222006,-123.000261
875,2016,5915034,Mediated Learning Academy,Burnaby,50,59,2016/2017,2017,49.268233,-122.891066
876,2016,5915025,Montecito Elementary,Burnaby,258,0,2016/2017,2017,49.264311,-122.953343
877,2016,5915025,Morley Elementary,Burnaby,345,0,2016/2017,2017,49.225962,-122.957443
878,2016,5915025,Moscrop Secondary,Burnaby,0,1431,2016/2017,2017,49.243029,-123.004465
879,2016,5915025,Nelson Elementary,Burnaby,348,0,2016/2017,2017,49.215732,-122.994865
880,2016,5915025,Our Lady of Mercy,Burnaby,234,0,2016/2017,2017,49.214283,-122.936402
881,2016,5915025,Parkcrest Elementary,Burnaby,181,0,2016/2017,2017,49.26801,-122.976294
882,2016,5915025,Prov Oral Program Deaf/Hard of Hearing,Burnaby,0,20,2016/2017,2017,49.214889,-122.985021
883,2016,5915025,Rosser Elementary,Burnaby,135,0,2016/2017,2017,49.28287,-123.006538
884,2016,5915025,Second Street Community,Burnaby,330,0,2016/2017,2017,49.227622,-122.928091
885,2016,5915025,South Slope Elementary,Burnaby,225,0,2016/2017,2017,49.2166,-123.004079
886,2016,5915025,Sperling Elementary,Burnaby,509,0,2016/2017,2017,49.263919,-122.964577
887,2016,5915025,St Francis de Sales,Burnaby,251,0,2016/2017,2017,49.220185,-122.965612
888,2016,5915025,St Helen's,Burnaby,361,0,2016/2017,2017,49.283791,-123.018675
889,2016,5915025,St Michaels,Burnaby,232,0,2016/2017,2017,49.235708,-122.895797
890,2016,5915025,St Thomas More Collegiate,Burnaby,0,675,2016/2017,2017,49.215483,-122.938618
891,2016,5915025,Stoney Creek Elementary,Burnaby,259,0,2016/2017,2017,49.258758,-122.904558
892,2016,5915025,Stride Avenue Community School,Burnaby,288,0,2016/2017,2017,49.211434,-122.955076
893,2016,5915025,Suncrest Elementary,Burnaby,283,0,2016/2017,2017,49.214852,-123.018443
894,2016,5915025,Taylor Park Elementary,Burnaby,586,0,2016/2017,2017,49.206941,-122.960463
895,2016,5915025,Twelfth Avenue Elementary,Burnaby,300,0,2016/2017,2017,49.217455,-122.934961
896,2016,5915025,University Highlands Elementary,Burnaby,245,0,2016/2017,2017,49.278249,-122.90882
897,2016,5915025,Westridge Elementary,Burnaby,280,0,2016/2017,2017,49.279545,-122.962395
898,2016,5915025,Whytecliff Agile Learning Centre-Burnaby,Burnaby,0,20,2016/2017,2017,49.253747,-123.02346
899,2016,5915025,Windsor Elementary,Burnaby,212,0,2016/2017,2017,49.222002,-122.973809
900,2016,5915075,Albion Elementary,Maple Ridge-Pitt Meadows,572,0,2016/2017,2017,49.184223,-122.556901
901,2016,5915075,Alexander Robinson Elementary,Maple Ridge-Pitt Meadows,565,0,2016/2017,2017,49.217429,-122.561332
902,2016,5915075,Alouette Elementary,Maple Ridge-Pitt Meadows,443,0,2016/2017,2017,49.22975,-122.607618
903,2016,5915075,Blue Mountain Elementary,Maple Ridge-Pitt Meadows,269,0,2016/2017,2017,49.22871,-122.534996
904,2016,5915075,Continuing Ed SD 42,Maple Ridge-Pitt Meadows,0,287,2016/2017,2017,49.214894,-122.651894
905,2016,5915070,Davie Jones Elementary,Maple Ridge-Pitt Meadows,366,0,2016/2017,2017,49.221176,-122.683721
906,2016,5915075,District 42 Alternative Secondary,Maple Ridge-Pitt Meadows,1,119,2016/2017,2017,49.236001,-122.579357
907,2016,5915070,Edith McDermott Elementary,Maple Ridge-Pitt Meadows,318,0,2016/2017,2017,49.223876,-122.680664
908,2016,5915075,Environmental School Project,Maple Ridge-Pitt Meadows,88,0,2016/2017,2017,49.221878,-122.605872
909,2016,5915075,Eric Langton Elementary,Maple Ridge-Pitt Meadows,422,0,2016/2017,2017,49.222976,-122.597689
910,2016,5915075,Fairview Elementary,Maple Ridge-Pitt Meadows,288,0,2016/2017,2017,49.224327,-122.650466
911,2016,5915075,Garibaldi Secondary,Maple Ridge-Pitt Meadows,0,748,2016/2017,2017,49.220303,-122.534991
912,2016,5915075,Glenwood Elementary,Maple Ridge-Pitt Meadows,328,0,2016/2017,2017,49.221991,-122.628242
913,2016,5915075,Golden Ears Elementary,Maple Ridge-Pitt Meadows,489,0,2016/2017,2017,49.216543,-122.581546
914,2016,5915075,Hammond Elementary,Maple Ridge-Pitt Meadows,421,0,2016/2017,2017,49.212315,-122.658487
915,2016,5915075,Harry Hooge Elementary,Maple Ridge-Pitt Meadows,430,0,2016/2017,2017,49.225296,-122.584758
916,2016,5915070,Highland Park Elementary,Maple Ridge-Pitt Meadows,305,0,2016/2017,2017,49.226148,-122.696234
917,2016,5915075,James Cameron School,Maple Ridge-Pitt Meadows,33,0,2016/2017,2017,49.221494,-122.659663
918,2016,5915075,Kanaka Creek Elementary,Maple Ridge-Pitt Meadows,617,0,2016/2017,2017,49.204026,-122.572935
919,2016,5915075,Laity View Elementary,Maple Ridge-Pitt Meadows,685,0,2016/2017,2017,49.226337,-122.638801
920,2016,5915075,Maple Ridge Christian School,Maple Ridge-Pitt Meadows,202,81,2016/2017,2017,49.223304,-122.656674
921,2016,5915075,Maple Ridge Elementary,Maple Ridge-Pitt Meadows,395,0,2016/2017,2017,49.212731,-122.644632
922,2016,5915075,Maple Ridge Secondary,Maple Ridge-Pitt Meadows,0,1317,2016/2017,2017,49.22423,-122.614027
923,2016,5915075,Meadow Montessori,Maple Ridge-Pitt Meadows,36,0,2016/2017,2017,49.20937,-122.649678
924,2016,5915075,Meadowridge School,Maple Ridge-Pitt Meadows,305,228,2016/2017,2017,49.224393,-122.557113
925,2016,5915075,Outreach Alternate Secondary,Maple Ridge-Pitt Meadows,0,131,2016/2017,2017,49.22423,-122.614027
926,2016,5915070,Pitt Meadows Elementary,Maple Ridge-Pitt Meadows,583,0,2016/2017,2017,49.219414,-122.689678
927,2016,5915070,Pitt Meadows Secondary,Maple Ridge-Pitt Meadows,0,866,2016/2017,2017,49.21436,-122.682736
928,2016,5915075,Samuel Robertson Technical Secondary,Maple Ridge-Pitt Meadows,0,785,2016/2017,2017,49.192059,-122.542522
929,2016,5915075,SD 42 Connected Learning Community,Maple Ridge-Pitt Meadows,19,297,2016/2017,2017,49.214894,-122.651894
930,2016,5915075,St Patrick's,Maple Ridge-Pitt Meadows,267,0,2016/2017,2017,49.222364,-122.596191
931,2016,5915075,Thomas Haney Centre,Maple Ridge-Pitt Meadows,0,1144,2016/2017,2017,49.212906,-122.585295
932,2016,5915075,Webster's Corners Elementary,Maple Ridge-Pitt Meadows,202,0,2016/2017,2017,49.220416,-122.513724
933,2016,5915075,Westview Secondary,Maple Ridge-Pitt Meadows,0,765,2016/2017,2017,49.223448,-122.642436
934,2016,5915075,Whonnock Elementary,Maple Ridge-Pitt Meadows,294,0,2016/2017,2017,49.205683,-122.460968
935,2016,5915075,Yennadon Elementary,Maple Ridge-Pitt Meadows,574,0,2016/2017,2017,49.234814,-122.575239
936,2016,5915034,Alderson Elementary,Coquitlam,193,0,2016/2017,2017,49.238748,-122.875944
937,2016,5915038,Anmore Elementary,Coquitlam,146,0,2016/2017,2017,49.311752,-122.857979
938,2016,5915039,Archbishop Carney Regional Secondary,Coquitlam,0,557,2016/2017,2017,49.258435,-122.751692
939,2016,5915043,Aspenwood Elementary,Coquitlam,514,0,2016/2017,2017,49.302263,-122.829623
940,2016,5915034,Baker Drive Elementary,Coquitlam,234,0,2016/2017,2017,49.268419,-122.824705
941,2016,5915034,Banting Middle School,Coquitlam,363,186,2016/2017,2017,49.264255,-122.877102
942,2016,5915039,Birchland Elementary,Coquitlam,180,0,2016/2017,2017,49.268955,-122.7512
943,2016,5915039,Blakeburn Elementary,Coquitlam,375,0,2016/2017,2017,49.26333,-122.742254
944,2016,5915034,Bramblewood Elementary,Coquitlam,310,0,2016/2017,2017,49.297513,-122.81225
945,2016,5915039,British Columbia Christian Academy,Coquitlam,186,136,2016/2017,2017,49.279907,-122.743584
946,2016,5915034,Cape Horn Elementary,Coquitlam,231,0,2016/2017,2017,49.234431,-122.836763
947,2016,5915039,Castle Park Elementary,Coquitlam,332,0,2016/2017,2017,49.233084,-122.78564
948,2016,5915039,Cedar Drive Elementary,Coquitlam,269,0,2016/2017,2017,49.270723,-122.739928
949,2016,5915034,Centennial School,Coquitlam,0,1323,2016/2017,2017,49.252446,-122.846593
950,2016,5915039,Central Elementary,Coquitlam,301,0,2016/2017,2017,49.256064,-122.78104
951,2016,5915034,Children of Integrity Montessori,Coquitlam,59,0,2016/2017,2017,49.273372,-122.821072
952,2016,5915039,Citadel Middle School,Coquitlam,280,110,2016/2017,2017,49.236894,-122.776467
953,2016,5915034,Como Lake Middle School,Coquitlam,191,99,2016/2017,2017,49.251481,-122.861738
954,2016,5915034,Continuing Ed SD 43,Coquitlam,0,449,2016/2017,2017,49.243158,-122.839122
955,2016,5915034,Coquitlam Alternate Basic Education,Coquitlam,0,169,2016/2017,2017,49.256183,-122.854711
956,2016,5915034,Coquitlam College - Brookmere Secondary,Coquitlam,0,129,2016/2017,2017,49.251118,-122.891395
957,2016,5915034,Coquitlam Open Learning 10-12,Coquitlam,0,834,2016/2017,2017,49.240531,-122.854078
958,2016,5915039,Coquitlam River Elementary,Coquitlam,250,0,2016/2017,2017,49.287836,-122.767157
959,2016,5915034,Dr Charles Best Secondary,Coquitlam,0,1406,2016/2017,2017,49.263229,-122.820374
960,2016,5915038,Eagle Mountain Middle School,Coquitlam,372,198,2016/2017,2017,49.302341,-122.839915
961,2016,5915034,Eagle Ridge Elementary,Coquitlam,393,0,2016/2017,2017,49.285355,-122.817743
962,2016,5915034,Ecole Porter Street Elementary,Coquitlam,379,0,2016/2017,2017,49.261691,-122.863281
963,2016,5915034,Encompass 10-12,Coquitlam,0,74,2016/2017,2017,49.251389,-122.849407
964,2016,5915034,Encompass K-9,Coquitlam,91,22,2016/2017,2017,49.251389,-122.849407
965,2016,5915034,Glen Elementary,Coquitlam,477,0,2016/2017,2017,49.282637,-122.790056
966,2016,5915043,Glenayre Elementary,Coquitlam,426,0,2016/2017,2017,49.274539,-122.888376
967,2016,5915034,Gleneagle Secondary,Coquitlam,0,1332,2016/2017,2017,49.283964,-122.809362
968,2016,5915034,Hampton Park Elementary,Coquitlam,330,0,2016/2017,2017,49.310567,-122.787433
969,2016,5915034,Harbour View Elementary,Coquitlam,280,0,2016/2017,2017,49.268376,-122.860263
970,2016,5915039,Hazel Trembath Elementary,Coquitlam,157,0,2016/2017,2017,49.237989,-122.783264
971,2016,5915043,Heritage Mountain Elementary,Coquitlam,373,0,2016/2017,2017,49.295106,-122.833205
972,2016,5915043,Heritage Woods Secondary,Coquitlam,0,1372,2016/2017,2017,49.298453,-122.843036
973,2016,5915034,Hillcrest Middle School,Coquitlam,360,200,2016/2017,2017,49.261638,-122.835378
974,2016,5915039,Hope Lutheran Christian School,Coquitlam,283,46,2016/2017,2017,49.27021,-122.764467
975,2016,5915034,Inquiry Hub,Coquitlam,0,62,2016/2017,2017,49.240531,-122.854078
976,2016,5915039,Irvine Elementary,Coquitlam,424,0,2016/2017,2017,49.281799,-122.761624
977,2016,5915039,James Park Elementary,Coquitlam,309,0,2016/2017,2017,49.265142,-122.763004
978,2016,5915039,Kilmer Elementary,Coquitlam,307,0,2016/2017,2017,49.243951,-122.771842
979,2016,5915039,Kwayhquitlum Middle School,Coquitlam,470,227,2016/2017,2017,49.272195,-122.770347
980,2016,5915034,Leigh Elementary,Coquitlam,496,0,2016/2017,2017,49.286651,-122.750331
981,2016,5915034,LINC-CLC,Coquitlam,0,48,2016/2017,2017,49.243158,-122.839122
982,2016,5915034,Lord Baden-Powell Elementary,Coquitlam,213,0,2016/2017,2017,49.248238,-122.873018
983,2016,5915034,Maillard Middle School,Coquitlam,247,136,2016/2017,2017,49.244984,-122.855196
984,2016,5915039,Maple Creek Middle School,Coquitlam,351,197,2016/2017,2017,49.278405,-122.781994
985,2016,5915039,Mary Hill Elementary,Coquitlam,321,0,2016/2017,2017,49.250756,-122.775696
986,2016,5915034,Meadowbrook Elementary,Coquitlam,175,0,2016/2017,2017,49.266897,-122.799157
987,2016,5915034,Miller Park Community School,Coquitlam,236,0,2016/2017,2017,49.265822,-122.87887
988,2016,5915039,Minnekhada Middle School,Coquitlam,285,149,2016/2017,2017,49.274775,-122.75152
989,2016,5915034,Montgomery Middle School,Coquitlam,197,115,2016/2017,2017,49.244677,-122.841376
990,2016,5915043,Moody Elementary,Coquitlam,188,0,2016/2017,2017,49.276639,-122.852078
991,2016,5915043,Moody Middle School,Coquitlam,179,100,2016/2017,2017,49.276559,-122.840149
992,2016,5915043,Mountain Meadows Elementary,Coquitlam,217,0,2016/2017,2017,49.290107,-122.82276
993,2016,5915034,Mountain View Elementary,Coquitlam,156,0,2016/2017,2017,49.260024,-122.879103
994,2016,5915034,Mundy Road Elementary,Coquitlam,196,0,2016/2017,2017,49.248987,-122.83427
995,2016,5915034,Nestor Elementary,Coquitlam,468,0,2016/2017,2017,49.289965,-122.778509
996,2016,5915034,Our Lady of Fatima,Coquitlam,375,0,2016/2017,2017,49.242383,-122.87767
997,2016,5915039,Our Lady of the Assumption,Coquitlam,243,0,2016/2017,2017,49.26932,-122.776485
998,2016,5915034,Panorama Heights Elementary,Coquitlam,493,0,2016/2017,2017,49.299846,-122.800324
999,2016,5915034,Parkland Elementary,Coquitlam,270,0,2016/2017,2017,49.261628,-122.848494
1000,2016,5915034,Pinetree Secondary,Coquitlam,0,1481,2016/2017,2017,49.290976,-122.791605
1001,2016,5915034,Pinetree Way Elementary,Coquitlam,311,0,2016/2017,2017,49.300166,-122.785353
1002,2016,5915039,Pitt River Middle School,Coquitlam,331,151,2016/2017,2017,49.25444,-122.775247
1003,2016,5915043,Pleasantside Elementary,Coquitlam,166,0,2016/2017,2017,49.294264,-122.855759
1004,2016,5915043,Port Moody Secondary,Coquitlam,0,1204,2016/2017,2017,49.27507,-122.866688
1005,2016,5915034,Queen of All Saints Elementary,Coquitlam,233,0,2016/2017,2017,49.263524,-122.853233
1006,2016,5915034,R C Macdonald Elementary,Coquitlam,136,0,2016/2017,2017,49.245367,-122.823154
1007,2016,5915034,Ranch Park Elementary,Coquitlam,228,0,2016/2017,2017,49.263993,-122.812348
1008,2016,5915039,Riverside Secondary,Coquitlam,0,1431,2016/2017,2017,49.256174,-122.78816
1009,2016,5915034,Riverview Park Elementary,Coquitlam,249,0,2016/2017,2017,49.257111,-122.804883
1010,2016,5915034,Rochester Elementary,Coquitlam,408,0,2016/2017,2017,49.246211,-122.852378
1011,2016,5915034,Roy Stibbs Elementary,Coquitlam,208,0,2016/2017,2017,49.253723,-122.882804
1012,2016,5915034,Scott Creek Middle School,Coquitlam,418,219,2016/2017,2017,49.286003,-122.813018
1013,2016,5915043,Seaview Community School,Coquitlam,209,0,2016/2017,2017,49.280175,-122.875369
1014,2016,5915034,Summit Middle School,Coquitlam,464,233,2016/2017,2017,49.29637,-122.806024
1015,2016,5915034,Suwa'lkh School,Coquitlam,5,49,2016/2017,2017,49.240531,-122.854078
1016,2016,5915039,Terry Fox Secondary,Coquitlam,0,1587,2016/2017,2017,49.263718,-122.748286
1017,2016,5915034,Traditional Learning Academy,Coquitlam,149,39,2016/2017,2017,49.245035,-122.856999
1018,2016,5915034,Tri-Cities Soar,Coquitlam,0,53,2016/2017,2017,49.243158,-122.839122
1019,2016,5915034,Walton Elementary,Coquitlam,568,0,2016/2017,2017,49.289912,-122.796816
1020,2016,5915039,Westwood Elementary,Coquitlam,196,0,2016/2017,2017,49.276849,-122.782109
1021,2016,5915046,Argyle Secondary,North Vancouver,0,1240,2016/2017,2017,49.341659,-123.042541
1022,2016,5915046,Blueridge Elementary,North Vancouver,347,0,2016/2017,2017,49.323938,-123.000363
1023,2016,5915051,Bodwell High School,North Vancouver,0,573,2016/2017,2017,49.314584,-123.100236
1024,2016,5915046,Boundary Elementary,North Vancouver,336,0,2016/2017,2017,49.334154,-123.05235
1025,2016,5915046,Braemar Elementary,North Vancouver,488,0,2016/2017,2017,49.343119,-123.08007
1026,2016,5915046,Brockton Preparatory School,North Vancouver,154,57,2016/2017,2017,49.340483,-123.024237
1027,2016,5915046,Brooksbank Elementary,North Vancouver,387,0,2016/2017,2017,49.31963,-123.046038
1028,2016,5915046,Canyon Heights Elementary,North Vancouver,383,0,2016/2017,2017,49.352782,-123.096417
1029,2016,5915046,Capilano Elementary,North Vancouver,452,0,2016/2017,2017,49.327707,-123.108443
1030,2016,5915046,Carisbrooke Elementary,North Vancouver,345,0,2016/2017,2017,49.342054,-123.062888
1031,2016,5915051,Carson Graham Secondary,North Vancouver,0,1315,2016/2017,2017,49.328828,-123.081541
1032,2016,5915046,Cleveland Elementary,North Vancouver,477,0,2016/2017,2017,49.347135,-123.109798
1033,2016,5915046,Continuing Ed SD 44,North Vancouver,0,13,2016/2017,2017,49.340516,-123.081428
1034,2016,5915046,Cousteau L'Ecole Francaise Interna'le,North Vancouver,120,7,2016/2017,2017,49.342681,-123.045033
1035,2016,5915046,Cove Cliff Elementary,North Vancouver,335,0,2016/2017,2017,49.322864,-122.948125
1036,2016,5915046,Dorothy Lynas Elementary,North Vancouver,543,0,2016/2017,2017,49.320525,-122.960732
1037,2016,5915046,Eastview Elementary,North Vancouver,251,0,2016/2017,2017,49.324932,-123.039875
1038,2016,5915046,Handsworth Secondary,North Vancouver,0,1457,2016/2017,2017,49.351778,-123.100936
1039,2016,5915046,Highlands Elementary,North Vancouver,433,0,2016/2017,2017,49.337961,-123.097914
1040,2016,5915051,Holy Trinity School,North Vancouver,227,0,2016/2017,2017,49.33416,-123.072955
1041,2016,5915046,Kenneth Gordon,North Vancouver,119,59,2016/2017,2017,49.309237,-123.01613
1042,2016,5915051,Larson Elementary,North Vancouver,460,0,2016/2017,2017,49.333335,-123.084568
1043,2016,5915046,Lions Gate Christian Academy,North Vancouver,210,109,2016/2017,2017,49.313708,-122.993998
1044,2016,5915046,Lynn Valley Elementary,North Vancouver,349,0,2016/2017,2017,49.339078,-123.037456
473,2016,5909052,Mountain Elementary,Abbotsford,384,0,2016/2017,2017,49.043344,-122.232878
474,2016,5909052,Mt Lehman Elementary,Abbotsford,163,0,2016/2017,2017,49.118283,-122.38227
475,2016,5909052,Pacific Christian School,Abbotsford,20,7,2016/2017,2017,49.075054,-122.403084
476,2016,5909052,Prince Charles Elementary,Abbotsford,296,0,2016/2017,2017,49.064502,-122.244246
477,2016,5909052,Rick Hansen Secondary,Abbotsford,0,591,2016/2017,2017,49.0676,-122.361169
478,2016,5909052,Robert Bateman Secondary,Abbotsford,0,961,2016/2017,2017,49.068178,-122.253705
479,2016,5909052,Ross Elementary,Abbotsford,215,0,2016/2017,2017,49.047253,-122.403764
480,2016,5909052,Sandy Hill Elementary,Abbotsford,584,0,2016/2017,2017,49.071444,-122.249355
481,2016,5909052,South Poplar Traditional Elementary,Abbotsford,293,0,2016/2017,2017,49.016847,-122.316708
482,2016,5909052,St James,Abbotsford,219,0,2016/2017,2017,49.052375,-122.360079
483,2016,5909052,St John Brebeuf,Abbotsford,0,409,2016/2017,2017,49.052086,-122.360085
484,2016,5909052,Ten Broeck Elementary,Abbotsford,307,0,2016/2017,2017,49.048775,-122.344954
485,2016,5909052,Terry Fox Elementary,Abbotsford,292,0,2016/2017,2017,49.057768,-122.300318
486,2016,5909052,Upper Sumas Elementary,Abbotsford,213,0,2016/2017,2017,49.017118,-122.218695
487,2016,5909052,W J Mouat Secondary,Abbotsford,0,1349,2016/2017,2017,49.058796,-122.330832
488,2016,5909052,West Coast Adventist DL School,Abbotsford,41,46,2016/2017,2017,49.05,-122.283333
489,2016,5909052,William A. Fraser Middle School,Abbotsford,444,269,2016/2017,2017,49.045043,-122.263345
490,2016,5909052,Yale Secondary,Abbotsford,0,1300,2016/2017,2017,49.04837,-122.265779
491,2016,5915001,Advance Alternate,Langley,0,23,2016/2017,2017,49.05385,-122.481178
492,2016,5915001,Aldergrove Christian Academy,Langley,20,2,2016/2017,2017,49.075689,-122.537728
493,2016,5915001,Aldergrove Community Secondary,Langley,0,618,2016/2017,2017,49.05385,-122.481178
494,2016,5915001,Alex Hope Elementary,Langley,598,0,2016/2017,2017,49.156677,-122.636024
495,2016,5915002,Alice Brown Elementary,Langley,230,0,2016/2017,2017,49.082188,-122.668728
496,2016,5915001,Belmont Elementary,Langley,577,0,2016/2017,2017,49.074005,-122.659743
497,2016,5915001,Betty Gilbert Middle,Langley,260,160,2016/2017,2017,49.051781,-122.480366
498,2016,5915002,Blacklock Fine Arts Elementary,Langley,254,0,2016/2017,2017,49.095314,-122.651836
499,2016,5915001,Brookswood Secondary,Langley,0,1120,2016/2017,2017,49.070208,-122.644544
500,2016,5915001,Choices Program,Langley,0,102,2016/2017,2017,49.104445,-122.628956
501,2016,5915001,Coghlan Fundamental Elementary,Langley,230,0,2016/2017,2017,49.082723,-122.513783
502,2016,5915001,Credo Christian Schools,Langley,223,299,2016/2017,2017,49.095755,-122.61797
503,2016,5915001,D W Poppy Secondary,Langley,0,828,2016/2017,2017,49.095366,-122.566041
504,2016,5915001,Dorothy Peacock Elementary,Langley,440,0,2016/2017,2017,49.167822,-122.660291
505,2016,5915002,Douglas Park Community,Langley,227,0,2016/2017,2017,49.100816,-122.651864
506,2016,5915001,Focus Alternate,Langley,0,33,2016/2017,2017,49.10545,-122.628923
507,2016,5915001,Fort Langley Elementary,Langley,260,0,2016/2017,2017,49.164141,-122.582603
508,2016,5915001,Fraser Valley Adventist Academy,Langley,112,105,2016/2017,2017,49.088334,-122.502685
509,2016,5915001,Fraser Valley Elementary,Langley,83,0,2016/2017,2017,49.124812,-122.659436
510,2016,5915001,Glenwood Elementary,Langley,170,0,2016/2017,2017,49.046304,-122.648124
511,2016,5915001,Gordon Greenwood Elementary,Langley,433,0,2016/2017,2017,49.169186,-122.652755
512,2016,5915002,H D Stafford Middle,Langley,391,192,2016/2017,2017,49.088899,-122.656172
513,2016,5915001,James Hill Elementary,Langley,295,0,2016/2017,2017,49.084176,-122.610086
514,2016,5915001,James Kennedy Elementary,Langley,668,0,2016/2017,2017,49.166979,-122.633676
515,2016,5915001,King's School,Langley,88,35,2016/2017,2017,49.133333,-122.616667
516,2016,5915001,Langley Christian,Langley,632,402,2016/2017,2017,49.087501,-122.589289
517,2016,5915001,Langley Education Centre,Langley,0,271,2016/2017,2017,49.104445,-122.628956
518,2016,5915001,Langley Fine Arts School,Langley,396,536,2016/2017,2017,49.168156,-122.586917
519,2016,5915001,Langley Fundamental Elementary,Langley,520,0,2016/2017,2017,49.093879,-122.620266
520,2016,5915001,Langley Fundamental Middle/Secondary Sch,Langley,180,547,2016/2017,2017,49.077442,-122.634948
521,2016,5915001,Langley Meadows Elementary,Langley,426,0,2016/2017,2017,49.121102,-122.672128
522,2016,5915001,Langley Montessori School,Langley,68,0,2016/2017,2017,49.090615,-122.627864
523,2016,5915001,Langley Online and Distributed Learning,Langley,0,393,2016/2017,2017,49.104445,-122.628956
524,2016,5915001,Langley Secondary,Langley,0,819,2016/2017,2017,49.10545,-122.628923
525,2016,5915001,U-Connect,Langley,79,96,2016/2017,2017,49.028457,-122.60275
526,2016,5915001,Lynn Fripps Elementary,Langley,435,0,2016/2017,2017,49.151962,-122.639402
527,2016,5915002,Nicomekl Elementary,Langley,256,0,2016/2017,2017,49.098433,-122.667285
528,2016,5915001,Noel Booth Elementary,Langley,300,0,2016/2017,2017,49.065036,-122.661849
529,2016,5915001,North Otter Elementary,Langley,274,0,2016/2017,2017,49.09979,-122.535445
530,2016,5915001,Parkside Centennial Elementary,Langley,460,0,2016/2017,2017,49.062746,-122.475082
531,2016,5915001,Peterson Road Elementary,Langley,270,0,2016/2017,2017,49.086052,-122.574615
532,2016,5915001,R C Garnett Demonstration Elementary,Langley,432,0,2016/2017,2017,49.13166,-122.663325
533,2016,5915001,R E Mountain Secondary,Langley,0,1123,2016/2017,2017,49.144283,-122.663182
534,2016,5915001,Richard Bulpitt Elementary,Langley,526,0,2016/2017,2017,49.143786,-122.641588
535,2016,5915001,Shortreed Community School,Langley,316,0,2016/2017,2017,49.052338,-122.466256
536,2016,5915002,Simonds Elementary,Langley,140,0,2016/2017,2017,49.089552,-122.662105
537,2016,5915001,St Catherines School,Langley,228,0,2016/2017,2017,49.059631,-122.662527
538,2016,5915001,Topham Elementary,Langley,364,0,2016/2017,2017,49.168315,-122.625697
539,2016,5915002,Uplands Elementary,Langley,264,0,2016/2017,2017,49.083092,-122.648662
540,2016,5915001,Walnut Grove Secondary,Langley,0,1924,2016/2017,2017,49.165804,-122.641848
541,2016,5915001,West Langley Elementary,Langley,260,0,2016/2017,2017,49.17465,-122.636393
542,2016,5915002,Whytecliff Agile Learning Centre-Langley,Langley,0,41,2016/2017,2017,49.106021,-122.65312
543,2016,5915001,Willoughby Elementary,Langley,362,0,2016/2017,2017,49.147097,-122.646797
544,2016,5915001,Wix-Brown Elementary,Langley,150,0,2016/2017,2017,49.045775,-122.563726
545,2016,5915001,Yorkson Creek Middle School,Langley,673,304,2016/2017,2017,49.154926,-122.649566
546,2016,5915004,A H P Matthew Elementary,Surrey,398,0,2016/2017,2017,49.178951,-122.852156
547,2016,5915004,A J McLellan Elementary,Surrey,511,0,2016/2017,2017,49.113413,-122.763556
548,2016,5915004,Adams Road Elementary,Surrey,551,0,2016/2017,2017,49.125902,-122.717123
549,2016,5915004,Bayridge Elementary,Surrey,321,0,2016/2017,2017,49.033423,-122.828404
550,2016,5915004,Bear Creek Elementary,Surrey,495,0,2016/2017,2017,49.148003,-122.840948
551,2016,5915004,Beaver Creek Elementary,Surrey,494,0,2016/2017,2017,49.121262,-122.880518
552,2016,5915004,Berkshire Park Elementary,Surrey,451,0,2016/2017,2017,49.173323,-122.796545
553,2016,5915004,Betty Huff Elementary,Surrey,380,0,2016/2017,2017,49.172463,-122.860404
554,2016,5915004,Bibleway Christian Academy,Surrey,46,51,2016/2017,2017,49.11139,-122.705589
555,2016,5915004,Bonaccord Elementary,Surrey,499,0,2016/2017,2017,49.180349,-122.806841
556,2016,5915004,Bothwell Elementary School,Surrey,211,0,2016/2017,2017,49.187787,-122.748573
557,2016,5915004,Boundary Park Elementary,Surrey,268,0,2016/2017,2017,49.117287,-122.881104
558,2016,5915004,Bridgeview Elementary,Surrey,154,0,2016/2017,2017,49.211796,-122.865897
559,2016,5915004,Brookside Elementary,Surrey,351,0,2016/2017,2017,49.158178,-122.827557
560,2016,5915004,Cambridge Elementary,Surrey,690,0,2016/2017,2017,49.113763,-122.806841
561,2016,5915004,Cedar Hills Elementary,Surrey,374,0,2016/2017,2017,49.180493,-122.879707
562,2016,5915004,Chantrell Creek Elementary,Surrey,349,0,2016/2017,2017,49.048739,-122.842521
563,2016,5915004,Chimney Hill Elementary,Surrey,686,0,2016/2017,2017,49.13737,-122.813511
564,2016,5915004,Cindrich Elementary,Surrey,482,0,2016/2017,2017,49.166523,-122.849956
565,2016,5915004,City Central Learning Centre,Surrey,0,191,2016/2017,2017,49.200733,-122.858932
566,2016,5915004,Clayton Elementary,Surrey,223,0,2016/2017,2017,49.139561,-122.712701
567,2016,5915004,Clayton Heights Secondary,Surrey,0,1359,2016/2017,2017,49.129216,-122.701914
568,2016,5915004,Cloverdale Catholic School,Surrey,301,0,2016/2017,2017,49.109749,-122.737409
569,2016,5915004,Cloverdale Christian School,Surrey,174,0,2016/2017,2017,49.110539,-122.726684
570,2016,5915004,Cloverdale Learning Centre,Surrey,0,151,2016/2017,2017,49.106659,-122.735191
571,2016,5915004,Cloverdale Traditional,Surrey,285,0,2016/2017,2017,49.104247,-122.727858
572,2016,5915004,Coast Meridian Elementary,Surrey,308,0,2016/2017,2017,49.15242,-122.754983
573,2016,5915004,Colebrook Elementary,Surrey,239,0,2016/2017,2017,49.101383,-122.874298
574,2016,5915004,Continuing Ed SD 36,Surrey,0,911,2016/2017,2017,49.170129,-122.833764
575,2016,5915004,Cornerstone Montessori School,Surrey,116,0,2016/2017,2017,49.155354,-122.814404
576,2016,5915004,Cougar Creek Elementary,Surrey,373,0,2016/2017,2017,49.130832,-122.883567
577,2016,5915004,Coyote Creek Elementary,Surrey,644,0,2016/2017,2017,49.150338,-122.79034
578,2016,5915004,Creekside Elementary,Surrey,356,0,2016/2017,2017,49.168019,-122.839702
579,2016,5915004,Crescent Park Elementary,Surrey,367,0,2016/2017,2017,49.046764,-122.867133
580,2016,5915004,David Brankin Elementary,Surrey,460,0,2016/2017,2017,49.169553,-122.867719
581,2016,5915004,Diamond Elementary School,Surrey,170,0,2016/2017,2017,49.104036,-122.706587
582,2016,5915004,Dogwood Elementary,Surrey,364,0,2016/2017,2017,49.19807,-122.786749
583,2016,5915004,Don Christian Elementary,Surrey,348,0,2016/2017,2017,49.116515,-122.712314
584,2016,5915004,Dr F D Sinclair Elementary,Surrey,515,0,2016/2017,2017,49.138782,-122.86761
585,2016,5915004,Earl Marriott Secondary,Surrey,0,1846,2016/2017,2017,49.031144,-122.785955
586,2016,5915004,East Kensington Elementary,Surrey,35,0,2016/2017,2017,49.052746,-122.713771
587,2016,5915007,Eaton Arrowsmith School White Rock,Surrey,9,4,2016/2017,2017,49.029972,-122.803868
588,2016,5915004,Ecole Riverdale Elementary,Surrey,463,0,2016/2017,2017,49.200043,-122.811411
589,2016,5915004,Education Services,Surrey,0,174,2016/2017,2017,49.170129,-122.833764
590,2016,5915004,Elgin Park Secondary,Surrey,0,1203,2016/2017,2017,49.045553,-122.848589
591,2016,5915004,Ellendale Elementary,Surrey,136,0,2016/2017,2017,49.203331,-122.819195
592,2016,5915004,Enver Creek Secondary,Surrey,0,1347,2016/2017,2017,49.155828,-122.82025
593,2016,5915004,Erma Stephenson Elementary,Surrey,461,0,2016/2017,2017,49.200945,-122.778926
594,2016,5915004,Fleetwood Park Secondary,Surrey,0,1466,2016/2017,2017,49.147187,-122.789839
595,2016,5915004,Forsyth Road Elementary,Surrey,288,0,2016/2017,2017,49.197629,-122.836706
596,2016,5915004,Frank Hurt Secondary,Surrey,0,1214,2016/2017,2017,49.142559,-122.835911
597,2016,5915004,Fraser Heights Secondary,Surrey,0,1405,2016/2017,2017,49.198599,-122.77693
598,2016,5915004,Fraser Wood Elementary,Surrey,525,0,2016/2017,2017,49.196138,-122.767232
599,2016,5915004,Frost Road Elementary,Surrey,614,0,2016/2017,2017,49.159286,-122.773042
600,2016,5915004,G.A.D. Elementary School,Surrey,521,0,2016/2017,2017,49.142876,-122.848987
601,2016,5915004,George Greenaway Elementary,Surrey,455,0,2016/2017,2017,49.113978,-122.742601
602,2016,5915004,Georges Vanier Elementary,Surrey,521,0,2016/2017,2017,49.129775,-122.828919
603,2016,5915004,Goldstone Park Elementary,Surrey,593,0,2016/2017,2017,49.116762,-122.817799
604,2016,5915004,Green Timbers Elementary,Surrey,528,0,2016/2017,2017,49.163588,-122.823177
605,2016,5915004,Guildford Learning Centre,Surrey,0,150,2016/2017,2017,49.188229,-122.799716
606,2016,5915004,Guildford Park Secondary,Surrey,0,1260,2016/2017,2017,49.196947,-122.817825
607,2016,5915004,H T Thrift Elementary,Surrey,259,0,2016/2017,2017,49.033679,-122.812465
608,2016,5915004,Halls Prairie Elementary,Surrey,139,0,2016/2017,2017,49.01725,-122.722855
609,2016,5915004,Harold Bishop Elementary,Surrey,435,0,2016/2017,2017,49.191401,-122.787701
610,2016,5915004,Hazelgrove Elementary,Surrey,664,0,2016/2017,2017,49.13069,-122.693224
611,2016,5915004,Henry Bose Elementary,Surrey,355,0,2016/2017,2017,49.121702,-122.850795
612,2016,5915004,Hillcrest Elementary,Surrey,595,0,2016/2017,2017,49.121068,-122.707494
613,2016,5915004,Hjorth Road Elementary,Surrey,245,0,2016/2017,2017,49.191566,-122.812928
614,2016,5915004,Holly Elementary,Surrey,575,0,2016/2017,2017,49.197094,-122.806511
615,2016,5915004,Holy Cross Regional High School,Surrey,0,816,2016/2017,2017,49.162951,-122.773802
616,2016,5915004,Hyland Elementary,Surrey,409,0,2016/2017,2017,49.124037,-122.835386
617,2016,5915004,iLearn DL Secondary School,Surrey,0,218,2016/2017,2017,49.115872,-122.845631
618,2016,5915004,Iqra School,Surrey,434,0,2016/2017,2017,49.214138,-122.817978
619,2016,5915004,J T Brown Elementary,Surrey,268,0,2016/2017,2017,49.111645,-122.875717
620,2016,5915004,James Ardiel Elementary,Surrey,415,0,2016/2017,2017,49.206613,-122.841116
621,2016,5915004,Janice Churchill Elementary,Surrey,281,0,2016/2017,2017,49.152599,-122.817404
622,2016,5915004,Jessie Lee Elementary,Surrey,323,0,2016/2017,2017,49.039711,-122.795469
623,2016,5915004,Johnston Heights Secondary,Surrey,0,1394,2016/2017,2017,49.182389,-122.796719
624,2016,5915004,K B Woodward Elementary,Surrey,537,0,2016/2017,2017,49.195191,-122.858833
625,2016,5915004,Katzie Elementary,Surrey,804,0,2016/2017,2017,49.128476,-122.684028
626,2016,5915004,Kennedy Trail Elementary,Surrey,300,0,2016/2017,2017,49.153963,-122.882936
627,2016,5915004,Khalsa School (Surrey),Surrey,2218,280,2016/2017,2017,49.129605,-122.879276
628,2016,5915004,Kirkbride Elementary,Surrey,396,0,2016/2017,2017,49.170196,-122.885694
629,2016,5915004,Kwantlen Park Secondary,Surrey,0,1518,2016/2017,2017,49.192533,-122.856481
630,2016,5915004,L A Matheson Secondary,Surrey,0,1118,2016/2017,2017,49.175184,-122.884575
631,2016,5915004,Laronde Elementary,Surrey,448,0,2016/2017,2017,49.036041,-122.858825
632,2016,5915004,Latimer Road Elementary,Surrey,406,0,2016/2017,2017,49.111466,-122.690193
633,2016,5915004,Lena Shaw Elementary,Surrey,510,0,2016/2017,2017,49.185012,-122.827132
634,2016,5915004,Lord Tweedsmuir Secondary,Surrey,0,2056,2016/2017,2017,49.114455,-122.72404
635,2016,5915004,M B Sanford Elementary,Surrey,529,0,2016/2017,2017,49.135739,-122.825879
636,2016,5915004,Maple Green Elementary,Surrey,416,0,2016/2017,2017,49.157326,-122.809731
637,2016,5915004,Martha Currie Elementary,Surrey,590,0,2016/2017,2017,49.107815,-122.712947
638,2016,5915004,Martha Jane Norris Elementary,Surrey,434,0,2016/2017,2017,49.123724,-122.864265
639,2016,5915004,Mary Jane Shannon Elementary,Surrey,374,0,2016/2017,2017,49.196552,-122.822771
640,2016,5915004,McLeod Road Traditional,Surrey,211,0,2016/2017,2017,49.117758,-122.828875
641,2016,5915004,Morgan Elementary,Surrey,428,0,2016/2017,2017,49.063198,-122.788496
642,2016,5915004,Mountainview Montessori,Surrey,335,0,2016/2017,2017,49.180766,-122.799456
643,2016,5915004,Newton Elementary,Surrey,426,0,2016/2017,2017,49.150225,-122.852776
644,2016,5915004,North Ridge Elementary,Surrey,391,0,2016/2017,2017,49.115248,-122.849018
645,2016,5915004,North Surrey Learning Centre,Surrey,0,177,2016/2017,2017,49.142876,-122.848987
646,2016,5915004,North Surrey Secondary,Surrey,0,1347,2016/2017,2017,49.177066,-122.78034
647,2016,5915004,Ocean Cliff Elementary,Surrey,348,0,2016/2017,2017,49.038429,-122.87483
648,2016,5915004,Old Yale Road Elementary,Surrey,450,0,2016/2017,2017,49.186902,-122.856784
649,2016,5915004,Our Lady of Good Counsel,Surrey,245,0,2016/2017,2017,49.193497,-122.836063
650,2016,5915004,Pacific Academy,Surrey,818,586,2016/2017,2017,49.189192,-122.756424
651,2016,5915004,Pacific Heights Elementary,Surrey,347,0,2016/2017,2017,49.0493,-122.747536
652,2016,5915004,Panorama Park Elementary,Surrey,400,0,2016/2017,2017,49.115295,-122.865991
653,2016,5915004,Panorama Ridge Secondary,Surrey,0,1603,2016/2017,2017,49.118791,-122.854987
654,2016,5915007,Peace Arch Elementary,Surrey,544,0,2016/2017,2017,49.025647,-122.782546
655,2016,5915004,Port Kells Elementary,Surrey,108,0,2016/2017,2017,49.162665,-122.693999
656,2016,5915004,Prince Charles Elementary,Surrey,343,0,2016/2017,2017,49.184692,-122.877597
657,2016,5915004,Princess Margaret Secondary,Surrey,0,1307,2016/2017,2017,49.13358,-122.865387
658,2016,5915004,Queen Elizabeth Secondary,Surrey,0,1237,2016/2017,2017,49.17405,-122.84619
659,2016,5915004,Ray Shepherd Elementary,Surrey,310,0,2016/2017,2017,49.032201,-122.845172
660,2016,5915004,Regent Christian Academy,Surrey,339,265,2016/2017,2017,49.123356,-122.803628
661,2016,5915004,Relevant High,Surrey,0,108,2016/2017,2017,49.104036,-122.706587
662,2016,5915004,Rosemary Heights Elementary,Surrey,547,0,2016/2017,2017,49.067178,-122.792666
663,2016,5915004,Royal Heights Elementary,Surrey,172,0,2016/2017,2017,49.179192,-122.899395
664,2016,5915004,Semiahmoo Secondary,Surrey,0,1623,2016/2017,2017,49.0346,-122.812473
665,2016,5915004,Semiahmoo Trail Elementary,Surrey,328,0,2016/2017,2017,49.057688,-122.819407
666,2016,5915004,Senator Reid Elementary,Surrey,384,0,2016/2017,2017,49.172652,-122.873892
667,2016,5915004,Serpentine Heights Elementary,Surrey,359,0,2016/2017,2017,49.173163,-122.775443
668,2016,5915004,Sikh Academy,Surrey,672,0,2016/2017,2017,49.157669,-122.865277
669,2016,5915004,Simon Cunningham Elementary,Surrey,589,0,2016/2017,2017,49.173125,-122.834345
670,2016,5915004,South Meridian Elementary,Surrey,325,0,2016/2017,2017,49.026025,-122.772642
671,2016,5915004,South Surrey White Rock Learning Centre,Surrey,0,156,2016/2017,2017,49.044491,-122.791619
672,2016,5915004,Southridge School,Surrey,320,361,2016/2017,2017,49.050067,-122.7786
673,2016,5915004,St Bernadette,Surrey,189,0,2016/2017,2017,49.122046,-122.858449
674,2016,5915004,St Matthew's Elementary,Surrey,238,0,2016/2017,2017,49.162782,-122.777084
675,2016,5915004,Star of the Sea,Surrey,450,0,2016/2017,2017,49.045457,-122.805971
676,2016,5915004,Strawberry Hill Elementary,Surrey,481,0,2016/2017,2017,49.14166,-122.87951
677,2016,5915004,Sullivan Elementary,Surrey,283,0,2016/2017,2017,49.111935,-122.799997
678,2016,5915004,Sullivan Heights Secondary,Surrey,0,1517,2016/2017,2017,49.115953,-122.823022
679,2016,5915004,Sunnyside Elementary,Surrey,578,0,2016/2017,2017,49.053387,-122.781944
680,2016,5915004,Sunrise Ridge Elementary,Surrey,305,0,2016/2017,2017,49.111168,-122.704388
681,2016,5915004,Surrey Centre Elementary,Surrey,455,0,2016/2017,2017,49.109676,-122.759148
682,2016,5915004,Surrey Christian,Surrey,542,440,2016/2017,2017,49.165101,-122.773164
683,2016,5915004,Surrey Academy of Innovative Learning,Surrey,69,1087,2016/2017,2017,49.158178,-122.827557
684,2016,5915004,Surrey Muslim School,Surrey,248,0,2016/2017,2017,49.138288,-122.848782
685,2016,5915004,Surrey Traditional,Surrey,337,0,2016/2017,2017,49.207827,-122.838263
686,2016,5915004,T E Scott Elementary,Surrey,557,0,2016/2017,2017,49.131509,-122.812451
687,2016,5915004,Tamanawis Secondary,Surrey,0,1446,2016/2017,2017,49.122715,-122.872426
688,2016,5915004,Traditional Learning Academy Online,Surrey,556,743,2016/2017,2017,49.122191,-122.732724
689,2016,5915004,W E Kinvig Elementary,Surrey,361,0,2016/2017,2017,49.131007,-122.854671
690,2016,5915004,Walnut Road Elementary,Surrey,663,0,2016/2017,2017,49.151698,-122.773617
691,2016,5915004,Westerman Elementary,Surrey,416,0,2016/2017,2017,49.141658,-122.884378
692,2016,5915004,White Rock Christian Academy,Surrey,281,143,2016/2017,2017,49.043395,-122.80146
693,2016,5915007,White Rock Elementary,Surrey,476,0,2016/2017,2017,49.025235,-122.798477
694,2016,5915004,William F. Davidson Elementary,Surrey,428,0,2016/2017,2017,49.183214,-122.791333
695,2016,5915004,William of Orange Christian,Surrey,84,0,2016/2017,2017,49.112304,-122.738974
696,2016,5915004,William Watson Elementary,Surrey,356,0,2016/2017,2017,49.147821,-122.766242
697,2016,5915004,Woodland Park Elementary,Surrey,454,0,2016/2017,2017,49.167148,-122.784748
698,2016,5915004,Woodward Hill Elementary,Surrey,678,0,2016/2017,2017,49.112902,-122.828765
699,2016,5915011,Annieville Elementary,Delta,277,0,2016/2017,2017,49.170777,-122.911182
700,2016,5915011,Beach Grove Elementary,Delta,308,0,2016/2017,2017,49.034719,-123.059083
701,2016,5915011,Boundary Bay Montessori House,Delta,40,0,2016/2017,2017,49.071061,-123.024145
702,2016,5915011,Brooke Elementary,Delta,309,0,2016/2017,2017,49.161705,-122.924765
703,2016,5915011,Burnsview Secondary,Delta,0,805,2016/2017,2017,49.141843,-122.912558
704,2016,5915011,Chalmers Elementary,Delta,461,0,2016/2017,2017,49.139394,-122.908499
705,2016,5915011,Cliff Drive Elementary,Delta,306,0,2016/2017,2017,49.024732,-123.084764
706,2016,5915011,Cougar Canyon Elementary,Delta,523,0,2016/2017,2017,49.126688,-122.900279
707,2016,5915011,Delta Access,Delta,0,187,2016/2017,2017,49.127632,-122.902658
708,2016,5915011,Delta Christian School,Delta,102,0,2016/2017,2017,49.090021,-123.075908
709,2016,5915011,Delta Continuing Education,Delta,0,207,2016/2017,2017,49.089079,-123.065236
710,2016,5915011,Delta Secondary,Delta,0,1148,2016/2017,2017,49.085606,-123.082671
711,2016,5915011,Delview Secondary,Delta,0,705,2016/2017,2017,49.168913,-122.901321
712,2016,5915011,Devon Gardens Elementary,Delta,377,0,2016/2017,2017,49.164884,-122.91491
713,2016,5915011,English Bluff Elementary,Delta,170,0,2016/2017,2017,49.010023,-123.089861
714,2016,5915011,Gibson Elementary,Delta,408,0,2016/2017,2017,49.166928,-122.905597
715,2016,5915011,Gray Elementary,Delta,526,0,2016/2017,2017,49.148488,-122.922134
716,2016,5915011,Hawthorne Elementary,Delta,454,0,2016/2017,2017,49.096116,-123.0725
717,2016,5915011,Heath Traditional Elementary,Delta,248,0,2016/2017,2017,49.133853,-122.907335
718,2016,5915011,Hellings Elementary,Delta,304,0,2016/2017,2017,49.15959,-122.899816
719,2016,5915011,Holly Elementary,Delta,381,0,2016/2017,2017,49.087124,-123.051202
720,2016,5915011,Home Quest,Delta,74,4,2016/2017,2017,49.089079,-123.065236
721,2016,5915011,Immaculate Conception School,Delta,459,0,2016/2017,2017,49.163485,-122.892617
722,2016,5915011,Jarvis Traditional Elementary,Delta,473,0,2016/2017,2017,49.142625,-122.89582
723,2016,5915011,Ladner Elementary,Delta,437,0,2016/2017,2017,49.082867,-123.084377
724,2016,5915011,McCloskey Elementary,Delta,365,0,2016/2017,2017,49.148651,-122.90333
725,2016,5915011,Neilson Grove Elementary,Delta,207,0,2016/2017,2017,49.1043,-123.072318
726,2016,5915011,North Delta Secondary,Delta,0,982,2016/2017,2017,49.152254,-122.905691
727,2016,5915011,Pebble Hill Traditional Elementary,Delta,289,0,2016/2017,2017,49.007124,-123.078361
728,2016,5915011,Pinewood Elementary,Delta,275,0,2016/2017,2017,49.114549,-122.896798
729,2016,5915011,Port Guichon Elementary,Delta,165,0,2016/2017,2017,49.082709,-123.095292
730,2016,5915011,Richardson Elementary,Delta,439,0,2016/2017,2017,49.154256,-122.908618
731,2016,5915011,Sacred Heart,Delta,359,0,2016/2017,2017,49.084722,-123.058611
732,2016,5915011,Sands Secondary,Delta,0,776,2016/2017,2017,49.152202,-122.922638
733,2016,5915011,Seaquam Secondary,Delta,0,1413,2016/2017,2017,49.127632,-122.902658
734,2016,5915011,South Delta Secondary,Delta,0,1485,2016/2017,2017,49.016083,-123.076839
735,2016,5915011,South Park Elementary,Delta,348,0,2016/2017,2017,49.016147,-123.070363
736,2016,5915011,Southpointe Academy,Delta,319,227,2016/2017,2017,49.036841,-123.068556
737,2016,5915011,Sunshine Hills Elementary,Delta,567,0,2016/2017,2017,49.123462,-122.909892
738,2016,5915015,A.R. MacNeill Secondary,Richmond,0,782,2016/2017,2017,49.164882,-123.114116
739,2016,5915015,Alfred B Dixon Elementary,Richmond,353,0,2016/2017,2017,49.144571,-123.18391
740,2016,5915015,Archibald Blair Elementary,Richmond,367,0,2016/2017,2017,49.165318,-123.164612
741,2016,5915029,Ark Elementary,Richmond,22,0,2016/2017,2017,49.201664,-122.910257
742,2016,5915015,Az-Zahraa Islamic Academy,Richmond,117,0,2016/2017,2017,49.150491,-123.09171
743,2016,5915015,BC Muslim School,Richmond,297,0,2016/2017,2017,49.155454,-123.087913
744,2016,5915015,Blundell Elementary,Richmond,127,0,2016/2017,2017,49.155532,-123.152434
745,2016,5915015,Cambie Secondary,Richmond,0,596,2016/2017,2017,49.183178,-123.080364
746,2016,5915015,Choice School For Gifted Children,Richmond,48,0,2016/2017,2017,49.169841,-122.995484
747,2016,5915015,City Vancouver Academy,Richmond,0,46,2016/2017,2017,49.183532,-123.125584
748,2016,5915015,Continuing Ed SD 38,Richmond,0,403,2016/2017,2017,49.162818,-123.138211
749,2016,5915015,Cornerstone Christian Academy,Richmond,198,0,2016/2017,2017,49.155486,-123.091646
750,2016,5915015,Daniel Woodward Elementary,Richmond,137,0,2016/2017,2017,49.138118,-123.098451
751,2016,5915015,Donald E McKay Elementary,Richmond,143,0,2016/2017,2017,49.158631,-123.166948
752,2016,5915015,Errington Learning Centre,Richmond,8,0,2016/2017,2017,49.142996,-123.140818
753,2016,5915015,Garden City Elementary,Richmond,265,0,2016/2017,2017,49.152596,-123.125353
754,2016,5915015,General Currie Elementary,Richmond,414,0,2016/2017,2017,49.159164,-123.133698
755,2016,5915015,Glen Eden School,Richmond,9,5,2016/2017,2017,49.182793,-123.079262
756,2016,5915015,Hamilton Elementary,Richmond,427,0,2016/2017,2017,49.175878,-122.966398
757,2016,5915015,Henry Anderson Elementary,Richmond,527,0,2016/2017,2017,49.165695,-123.119761
758,2016,5915015,Howard De Beck Elementary,Richmond,282,0,2016/2017,2017,49.150745,-123.119724
759,2016,5915015,Hugh Boyd Secondary,Richmond,0,706,2016/2017,2017,49.146444,-123.181252
760,2016,5915015,Hugh McRoberts Secondary,Richmond,0,933,2016/2017,2017,49.140782,-123.125427
761,2016,5915015,J N Burnett Secondary,Richmond,0,1004,2016/2017,2017,49.162714,-123.169538
762,2016,5915015,James Gilmore Elementary,Richmond,296,0,2016/2017,2017,49.152076,-123.188678
763,2016,5915015,James McKinney Elementary,Richmond,302,0,2016/2017,2017,49.136911,-123.163755
764,2016,5915015,James Thompson Elementary,Richmond,207,0,2016/2017,2017,49.169147,-123.177646
765,2016,5915015,James Whiteside Elementary,Richmond,404,0,2016/2017,2017,49.140764,-123.12044
766,2016,5915015,Jessie Wowk Elementary,Richmond,225,0,2016/2017,2017,49.143879,-123.164257
767,2016,5915015,John G Diefenbaker Elementary,Richmond,350,0,2016/2017,2017,49.137132,-123.175966
768,2016,5915015,John T Errington Elementary,Richmond,231,0,2016/2017,2017,49.142996,-123.140818
769,2016,5915015,Kathleen McNeely Elementary,Richmond,297,0,2016/2017,2017,49.182296,-123.086622
770,2016,5915015,Kingswood Elementary,Richmond,207,0,2016/2017,2017,49.144329,-123.095447
771,2016,5915015,Lord Byng Elementary,Richmond,313,0,2016/2017,2017,49.130264,-123.184135
772,2016,5915015,Manoah Steves Elementary,Richmond,282,0,2016/2017,2017,49.140188,-123.187036
773,2016,5915015,Maple Lane Elementary,Richmond,171,0,2016/2017,2017,49.137231,-123.141186
774,2016,5915015,Matthew McNair Secondary,Richmond,0,832,2016/2017,2017,49.142951,-123.114042
775,2016,5915015,Mitchell Elementary,Richmond,384,0,2016/2017,2017,49.184624,-123.090507
776,2016,5915015,Pythagoras Academy,Richmond,107,0,2016/2017,2017,49.180864,-123.127084
777,2016,5915015,Quilchena Elementary,Richmond,148,0,2016/2017,2017,49.159223,-123.184771
778,2016,5915015,R C Palmer Secondary,Richmond,0,575,2016/2017,2017,49.154063,-123.130906
779,2016,5915015,R M Grauer Elementary,Richmond,144,0,2016/2017,2017,49.155594,-123.175355
780,2016,5915015,R. C. Talmey Elementary,Richmond,160,0,2016/2017,2017,49.188408,-123.119423
781,2016,5915015,Richmond Christian School,Richmond,587,397,2016/2017,2017,49.14388,-123.166278
782,2016,5915015,Richmond Jewish Day School,Richmond,99,0,2016/2017,2017,49.148962,-123.09173
783,2016,5915015,Richmond Secondary,Richmond,0,1168,2016/2017,2017,49.161347,-123.140295
784,2016,5915015,Richmond Virtual School,Richmond,0,584,2016/2017,2017,49.162818,-123.138211
785,2016,5915015,Robert Alexander McMath Secondary,Richmond,0,1292,2016/2017,2017,49.129327,-123.177504
786,2016,5915015,Robert J Tait Elementary,Richmond,215,0,2016/2017,2017,49.195823,-123.112298
787,2016,5915015,Samuel Brighouse Elementary,Richmond,381,0,2016/2017,2017,49.165991,-123.14975
788,2016,5915015,Sea Island Elementary,Richmond,31,0,2016/2017,2017,49.190838,-123.149186
789,2016,5915015,Spul'u'kwuks Elementary,Richmond,413,0,2016/2017,2017,49.170743,-123.184403
790,2016,5915015,St Joseph the Worker,Richmond,224,0,2016/2017,2017,49.141088,-123.174715
791,2016,5915015,St Paul School,Richmond,246,0,2016/2017,2017,49.153441,-123.131016
792,2016,5915015,Station Stretch,Richmond,1,70,2016/2017,2017,49.175376,-123.14009
793,2016,5915015,Steveston-London Secondary,Richmond,0,1257,2016/2017,2017,49.14091,-123.150285
794,2016,5915015,Thomas Kidd Elementary,Richmond,164,0,2016/2017,2017,49.134178,-123.103266
795,2016,5915015,Tomekichi Homma Elementary,Richmond,548,0,2016/2017,2017,49.123547,-123.168312
796,2016,5915015,Tomsett Elementary,Richmond,222,0,2016/2017,2017,49.181805,-123.11647
797,2016,5915015,W D Ferris Elementary,Richmond,549,0,2016/2017,2017,49.15464,-123.144109
798,2016,5915015,Walter Lee Elementary,Richmond,302,0,2016/2017,2017,49.144043,-123.119826
799,2016,5915015,Westwind Elementary,Richmond,405,0,2016/2017,2017,49.130138,-123.163061
800,2016,5915015,William Bridge Elementary,Richmond,304,0,2016/2017,2017,49.137032,-123.133646
801,2016,5915015,William Cook Elementary,Richmond,482,0,2016/2017,2017,49.166432,-123.128493
802,2016,5915022,Admiral Seymour Elementary,Vancouver,128,0,2016/2017,2017,49.278677,-123.080284
803,2016,5915022,Alexander Academy,Vancouver,0,135,2016/2017,2017,49.285001,-123.11401
804,2016,5915022,Anchor Point Montessori,Vancouver,50,0,2016/2017,2017,49.281114,-123.125909
